[
  {
    "IDUNIDAD":"01",
    "NOMBREL":"ANTILLAS",
    "MUNICIPIOL":"BENITO JUAREZ",
    "ESTADO":"DISTRITO FEDERAL",
    "TIENDA":"SUCURSAL",
    "LATITUD":19.36847,
    "LONGITUD":-99.14294
  },
  {
    "IDUNIDAD":"02",
    "NOMBREL":"CUERNAVACA 1",
    "MUNICIPIOL":"CUERNAVACA",
    "ESTADO":"MORELOS",
    "TIENDA":"SUCURSAL",
    "LATITUD":18.922256,
    "LONGITUD":-99.235348
  },
  {
    "IDUNIDAD":"03",
    "NOMBREL":"TACUBAYA",
    "MUNICIPIOL":"MIGUEL HIDALGO",
    "ESTADO":"DISTRITO FEDERAL",
    "TIENDA":"SUCURSAL",
    "LATITUD":19.40261,
    "LONGITUD":-99.18647
  },
  {
    "IDUNIDAD":"04",
    "NOMBREL":"LA VILLA",
    "MUNICIPIOL":"GUSTAVO A MADERO",
    "ESTADO":"DISTRITO FEDERAL",
    "TIENDA":"SUCURSAL",
    "LATITUD":19.485467,
    "LONGITUD":-99.119317
  },
  {
    "IDUNIDAD":"05",
    "NOMBREL":"DIVISION DEL NORTE",
    "MUNICIPIOL":"COYOACAN",
    "ESTADO":"DISTRITO FEDERAL",
    "TIENDA":"SUCURSAL",
    "LATITUD":19.345051,
    "LONGITUD":-99.149676
  },
  {
    "IDUNIDAD":"06",
    "NOMBREL":"GUADALAJARA 1",
    "MUNICIPIOL":"GUADALAJARA",
    "ESTADO":"JALISCO",
    "TIENDA":"SUCURSAL",
    "LATITUD":20.67433,
    "LONGITUD":-103.34858
  },
  {
    "IDUNIDAD":"07",
    "NOMBREL":"PUEBLA 1",
    "MUNICIPIOL":"PUEBLA",
    "ESTADO":"PUEBLA",
    "TIENDA":"SUCURSAL",
    "LATITUD":19.04802,
    "LONGITUD":-98.19617
  },
  {
    "IDUNIDAD":"08",
    "NOMBREL":"MONTERREY 1",
    "MUNICIPIOL":"MONTERREY",
    "ESTADO":"NUEVO LEON",
    "TIENDA":"SUCURSAL",
    "LATITUD":25.683881,
    "LONGITUD":-100.31802
  },
  {
    "IDUNIDAD":"09",
    "NOMBREL":"TOLUCA 1",
    "MUNICIPIOL":"TOLUCA",
    "ESTADO":"ESTADO DE MEXICO",
    "TIENDA":"SUCURSAL",
    "LATITUD":19.288186,
    "LONGITUD":-99.653443
  },
  {
    "IDUNIDAD":"10",
    "NOMBREL":"LEON 1",
    "MUNICIPIOL":"LEON",
    "ESTADO":"GUANAJUATO",
    "TIENDA":"SUCURSAL",
    "LATITUD":21.12434,
    "LONGITUD":-101.67911
  },
  {
    "IDUNIDAD":"100",
    "NOMBREL":"CULIACAN 2",
    "MUNICIPIOL":"CULIACAN",
    "ESTADO":"SINALOA",
    "TIENDA":"SUCURSAL",
    "LATITUD":24.80883,
    "LONGITUD":-107.39538
  },
  {
    "IDUNIDAD":"1000",
    "NOMBREL":"CELAYA 5",
    "MUNICIPIOL":"CELAYA",
    "ESTADO":"GUANAJUATO",
    "TIENDA":"SUCURSAL",
    "LATITUD":20.52292,
    "LONGITUD":-100.81442
  },
  {
    "IDUNIDAD":"1003",
    "NOMBREL":"CULIACAN 12",
    "MUNICIPIOL":"CULIACAN",
    "ESTADO":"SINALOA",
    "TIENDA":"SUCURSAL",
    "LATITUD":24.80812,
    "LONGITUD":-107.39565
  },
  {
    "IDUNIDAD":"1005",
    "NOMBREL":"REYNOSA 11",
    "MUNICIPIOL":"REYNOSA",
    "ESTADO":"TAMAULIPAS",
    "TIENDA":"SUCURSAL",
    "LATITUD":26.07263,
    "LONGITUD":-98.32598
  },
  {
    "IDUNIDAD":"1007",
    "NOMBREL":"CORREO MAYOR",
    "MUNICIPIOL":"CUAUHTEMOC",
    "ESTADO":"DISTRITO FEDERAL",
    "TIENDA":"SUCURSAL",
    "LATITUD":19.4301,
    "LONGITUD":-99.13032
  },
  {
    "IDUNIDAD":"1009",
    "NOMBREL":"CULIACAN 14",
    "MUNICIPIOL":"CULIACAN",
    "ESTADO":"SINALOA",
    "TIENDA":"SUCURSAL",
    "LATITUD":24.5907,
    "LONGITUD":-107.39294
  },
  {
    "IDUNIDAD":"101",
    "NOMBREL":"JAMAICA",
    "MUNICIPIOL":"VENUSTIANO CARRANZA",
    "ESTADO":"DISTRITO FEDERAL",
    "TIENDA":"SUCURSAL",
    "LATITUD":19.40914,
    "LONGITUD":-99.12341
  },
  {
    "IDUNIDAD":"1011",
    "NOMBREL":"TAMPICO 11",
    "MUNICIPIOL":"TAMPICO",
    "ESTADO":"TAMAULIPAS",
    "TIENDA":"SUCURSAL",
    "LATITUD":22.305465,
    "LONGITUD":-97.891228
  },
  {
    "IDUNIDAD":"1012",
    "NOMBREL":"TAMPICO 12",
    "MUNICIPIOL":"TAMPICO",
    "ESTADO":"TAMAULIPAS",
    "TIENDA":"SUCURSAL",
    "LATITUD":22.30443,
    "LONGITUD":-97.85899
  },
  {
    "IDUNIDAD":"1013",
    "NOMBREL":"TANQUIAN DE ESCOBEDO SLP",
    "MUNICIPIOL":"TANQUIAN DE ESCOBEDO",
    "ESTADO":"SAN LUIS POTOSI",
    "TIENDA":"SUCURSAL",
    "LATITUD":21.59955,
    "LONGITUD":-98.6629
  },
  {
    "IDUNIDAD":"1014",
    "NOMBREL":"GRAL. FRANCISCO R. MURGUIA",
    "MUNICIPIOL":"GENERAL FRANCISCO R MURGUIA",
    "ESTADO":"ZACATECAS",
    "TIENDA":"SUCURSAL",
    "LATITUD":23.99458,
    "LONGITUD":-103.02227
  },
  {
    "IDUNIDAD":"1016",
    "NOMBREL":"VERACRUZ 14",
    "MUNICIPIOL":"VERACRUZ",
    "ESTADO":"VERACRUZ",
    "TIENDA":"SUCURSAL",
    "LATITUD":19.17909,
    "LONGITUD":-96.13296
  },
  {
    "IDUNIDAD":"1019",
    "NOMBREL":"TIJUANA 25",
    "MUNICIPIOL":"TIJUANA",
    "ESTADO":"BAJA CALIFORNIA",
    "TIENDA":"SUCURSAL",
    "LATITUD":32.533632,
    "LONGITUD":-117.008623
  },
  {
    "IDUNIDAD":"102",
    "NOMBREL":"SATELITE 1",
    "MUNICIPIOL":"NAUCALPAN DE JUAREZ",
    "ESTADO":"ESTADO DE MEXICO",
    "TIENDA":"SUCURSAL",
    "LATITUD":19.496636,
    "LONGITUD":-99.236516
  },
  {
    "IDUNIDAD":"1020",
    "NOMBREL":"COZUMEL 3",
    "MUNICIPIOL":"COZUMEL",
    "ESTADO":"QUINTANA ROO",
    "TIENDA":"SUCURSAL",
    "LATITUD":20.497,
    "LONGITUD":-86.93743
  },
  {
    "IDUNIDAD":"1021",
    "NOMBREL":"VILLAHERMOSA 9",
    "MUNICIPIOL":"CENTRO",
    "ESTADO":"TABASCO",
    "TIENDA":"SUCURSAL",
    "LATITUD":17.98123,
    "LONGITUD":-92.95418
  },
  {
    "IDUNIDAD":"1022",
    "NOMBREL":"MEXICALI 17",
    "MUNICIPIOL":"MEXICALI",
    "ESTADO":"BAJA CALIFORNIA",
    "TIENDA":"SUCURSAL",
    "LATITUD":32.62355,
    "LONGITUD":-115.48165
  },
  {
    "IDUNIDAD":"1023",
    "NOMBREL":"MEXICALI 18",
    "MUNICIPIOL":"MEXICALI",
    "ESTADO":"BAJA CALIFORNIA",
    "TIENDA":"SUCURSAL",
    "LATITUD":32.60786,
    "LONGITUD":-115.47925
  },
  {
    "IDUNIDAD":"1024",
    "NOMBREL":"CUERNAVACA 13",
    "MUNICIPIOL":"CUERNAVACA",
    "ESTADO":"MORELOS",
    "TIENDA":"SUCURSAL",
    "LATITUD":18.94485,
    "LONGITUD":-99.23344
  },
  {
    "IDUNIDAD":"1026",
    "NOMBREL":"DELICIAS 4",
    "MUNICIPIOL":"DELICIAS",
    "ESTADO":"CHIHUAHUA",
    "TIENDA":"SUCURSAL",
    "LATITUD":28.19208,
    "LONGITUD":-105.4739
  },
  {
    "IDUNIDAD":"1027",
    "NOMBREL":"COLIMA 4",
    "MUNICIPIOL":"COLIMA",
    "ESTADO":"COLIMA",
    "TIENDA":"SUCURSAL",
    "LATITUD":19.24186,
    "LONGITUD":-103.72372
  },
  {
    "IDUNIDAD":"1028",
    "NOMBREL":"LAGOS DE MORENO 2",
    "MUNICIPIOL":"LAGOS DE MORENO",
    "ESTADO":"JALISCO",
    "TIENDA":"SUCURSAL",
    "LATITUD":21.35752,
    "LONGITUD":-101.93166
  },
  {
    "IDUNIDAD":"1029",
    "NOMBREL":"CULIACAN 13",
    "MUNICIPIOL":"CULIACAN",
    "ESTADO":"SINALOA",
    "TIENDA":"SUCURSAL",
    "LATITUD":24.8045,
    "LONGITUD":-107.38246
  },
  {
    "IDUNIDAD":"103",
    "NOMBREL":"ECATEPEC 2",
    "MUNICIPIOL":"ECATEPEC DE MORELOS",
    "ESTADO":"ESTADO DE MEXICO",
    "TIENDA":"SUCURSAL",
    "LATITUD":19.599287,
    "LONGITUD":-99.044787
  },
  {
    "IDUNIDAD":"1030",
    "NOMBREL":"MEXICALI 19",
    "MUNICIPIOL":"MEXICALI",
    "ESTADO":"BAJA CALIFORNIA",
    "TIENDA":"SUCURSAL",
    "LATITUD":32.63834,
    "LONGITUD":-115.47115
  },
  {
    "IDUNIDAD":"1031",
    "NOMBREL":"MEXICALI 20",
    "MUNICIPIOL":"MEXICALI",
    "ESTADO":"BAJA CALIFORNIA",
    "TIENDA":"SUCURSAL",
    "LATITUD":32.62484,
    "LONGITUD":-115.42235
  },
  {
    "IDUNIDAD":"1032",
    "NOMBREL":"ACAPULCO 20",
    "MUNICIPIOL":"ACAPULCO DE JUAREZ",
    "ESTADO":"GUERRERO",
    "TIENDA":"SUCURSAL",
    "LATITUD":16.86162,
    "LONGITUD":-99.889
  },
  {
    "IDUNIDAD":"1033",
    "NOMBREL":"CD. JUAREZ 10",
    "MUNICIPIOL":"JUAREZ",
    "ESTADO":"CHIHUAHUA",
    "TIENDA":"SUCURSAL",
    "LATITUD":31.71412,
    "LONGITUD":-106.42287
  },
  {
    "IDUNIDAD":"1034",
    "NOMBREL":"VERACRUZ 16",
    "MUNICIPIOL":"VERACRUZ",
    "ESTADO":"VERACRUZ",
    "TIENDA":"SUCURSAL",
    "LATITUD":19.17963,
    "LONGITUD":-96.14294
  },
  {
    "IDUNIDAD":"1035",
    "NOMBREL":"NEZAHUALCOYOTL 11",
    "MUNICIPIOL":"NEZAHUALCOYOTL",
    "ESTADO":"ESTADO DE MEXICO",
    "TIENDA":"SUCURSAL",
    "LATITUD":19.413,
    "LONGITUD":-98.99962
  },
  {
    "IDUNIDAD":"1036",
    "NOMBREL":"ECATEPEC 7",
    "MUNICIPIOL":"ECATEPEC DE MORELOS",
    "ESTADO":"ESTADO DE MEXICO",
    "TIENDA":"SUCURSAL",
    "LATITUD":19.51015,
    "LONGITUD":-99.08985
  },
  {
    "IDUNIDAD":"1039",
    "NOMBREL":"IXTAPALUCA 5",
    "MUNICIPIOL":"IXTAPALUCA",
    "ESTADO":"ESTADO DE MEXICO",
    "TIENDA":"SUCURSAL",
    "LATITUD":19.31481,
    "LONGITUD":-98.88186
  },
  {
    "IDUNIDAD":"104",
    "NOMBREL":"LA PAZ 1",
    "MUNICIPIOL":"LA PAZ",
    "ESTADO":"BAJA CALIFORNIA SUR",
    "TIENDA":"SUCURSAL",
    "LATITUD":24.16268,
    "LONGITUD":-110.31335
  },
  {
    "IDUNIDAD":"1040",
    "NOMBREL":"SAN CRISTOBAL DE LAS CASAS 5",
    "MUNICIPIOL":"SAN CRISTOBAL DE LAS CASAS",
    "ESTADO":"CHIAPAS",
    "TIENDA":"SUCURSAL",
    "LATITUD":16.74028,
    "LONGITUD":-92.638024
  },
  {
    "IDUNIDAD":"1041",
    "NOMBREL":"MIRAMONTES 2",
    "MUNICIPIOL":"TLALPAN",
    "ESTADO":"DISTRITO FEDERAL",
    "TIENDA":"SUCURSAL",
    "LATITUD":19.29892,
    "LONGITUD":-99.12521
  },
  {
    "IDUNIDAD":"1042",
    "NOMBREL":"MONTERREY 49",
    "MUNICIPIOL":"SAN NICOLAS DE LOS GARZA",
    "ESTADO":"NUEVO LEON",
    "TIENDA":"SUCURSAL",
    "LATITUD":25.756,
    "LONGITUD":-100.26626
  },
  {
    "IDUNIDAD":"1043",
    "NOMBREL":"MIGUEL ALEMAN SON",
    "MUNICIPIOL":"HERMOSILLO",
    "ESTADO":"SONORA",
    "TIENDA":"SUCURSAL",
    "LATITUD":28.84394,
    "LONGITUD":-111.48722
  },
  {
    "IDUNIDAD":"1044",
    "NOMBREL":"ACAPULCO 21",
    "MUNICIPIOL":"ACAPULCO DE JUAREZ",
    "ESTADO":"GUERRERO",
    "TIENDA":"SUCURSAL",
    "LATITUD":16.85326,
    "LONGITUD":-99.90621
  },
  {
    "IDUNIDAD":"1045",
    "NOMBREL":"ISLA 2",
    "MUNICIPIOL":"ISLA",
    "ESTADO":"VERACRUZ",
    "TIENDA":"SUCURSAL",
    "LATITUD":18.03078,
    "LONGITUD":-95.52952
  },
  {
    "IDUNIDAD":"1047",
    "NOMBREL":"MEXICALI 21",
    "MUNICIPIOL":"MEXICALI",
    "ESTADO":"BAJA CALIFORNIA",
    "TIENDA":"SUCURSAL",
    "LATITUD":32.66347,
    "LONGITUD":-115.49347
  },
  {
    "IDUNIDAD":"1048",
    "NOMBREL":"PIJIJIAPAN 2",
    "MUNICIPIOL":"PIJIJIAPAN",
    "ESTADO":"CHIAPAS",
    "TIENDA":"SUCURSAL",
    "LATITUD":15.6877,
    "LONGITUD":-93.2076
  },
  {
    "IDUNIDAD":"1049",
    "NOMBREL":"ROSARITO 3",
    "MUNICIPIOL":"PLAYAS DE ROSARITO",
    "ESTADO":"BAJA CALIFORNIA",
    "TIENDA":"SUCURSAL",
    "LATITUD":32.36339,
    "LONGITUD":-117.05958
  },
  {
    "IDUNIDAD":"105",
    "NOMBREL":"ZACATECAS 1",
    "MUNICIPIOL":"ZACATECAS",
    "ESTADO":"ZACATECAS",
    "TIENDA":"SUCURSAL",
    "LATITUD":22.7748,
    "LONGITUD":-102.57249
  },
  {
    "IDUNIDAD":"1051",
    "NOMBREL":"VILLA JUAREZ SLP",
    "MUNICIPIOL":"VILLA JUAREZ",
    "ESTADO":"SAN LUIS POTOSI",
    "TIENDA":"SUCURSAL",
    "LATITUD":22.3247,
    "LONGITUD":-100.26661
  },
  {
    "IDUNIDAD":"1052",
    "NOMBREL":"PUEBLO VIEJO",
    "MUNICIPIOL":"PUEBLO VIEJO",
    "ESTADO":"VERACRUZ",
    "TIENDA":"SUCURSAL",
    "LATITUD":22.2059,
    "LONGITUD":-97.8532
  },
  {
    "IDUNIDAD":"1053",
    "NOMBREL":"HUEHUETAN CHIAPAS",
    "MUNICIPIOL":"HUEHUETAN",
    "ESTADO":"CHIAPAS",
    "TIENDA":"SUCURSAL",
    "LATITUD":15.0111,
    "LONGITUD":-92.40388
  },
  {
    "IDUNIDAD":"1054",
    "NOMBREL":"CANCUN 12",
    "MUNICIPIOL":"BENITO JUAREZ",
    "ESTADO":"QUINTANA ROO",
    "TIENDA":"SUCURSAL",
    "LATITUD":21.151182,
    "LONGITUD":-86.87355
  },
  {
    "IDUNIDAD":"1055",
    "NOMBREL":"BENJAMIN HILL SON",
    "MUNICIPIOL":"BENJAMIN HILL",
    "ESTADO":"SONORA",
    "TIENDA":"SUCURSAL",
    "LATITUD":30.16973,
    "LONGITUD":-111.11215
  },
  {
    "IDUNIDAD":"1056",
    "NOMBREL":"HERMOSILLO 7",
    "MUNICIPIOL":"HERMOSILLO",
    "ESTADO":"SONORA",
    "TIENDA":"SUCURSAL",
    "LATITUD":29.09479,
    "LONGITUD":-110.93109
  },
  {
    "IDUNIDAD":"1057",
    "NOMBREL":"COYUCA DE CATALAN GRO.",
    "MUNICIPIOL":"COYUCA DE CATALAN",
    "ESTADO":"GUERRERO",
    "TIENDA":"SUCURSAL",
    "LATITUD":18.32558,
    "LONGITUD":-100.69802
  },
  {
    "IDUNIDAD":"1059",
    "NOMBREL":"GUADALAJARA 38",
    "MUNICIPIOL":"ZAPOPAN",
    "ESTADO":"JALISCO",
    "TIENDA":"SUCURSAL",
    "LATITUD":20.63553,
    "LONGITUD":-103.46336
  },
  {
    "IDUNIDAD":"106",
    "NOMBREL":"HERMOSILLO 3",
    "MUNICIPIOL":"HERMOSILLO",
    "ESTADO":"SONORA",
    "TIENDA":"SUCURSAL",
    "LATITUD":29.11355,
    "LONGITUD":-110.99228
  },
  {
    "IDUNIDAD":"1060",
    "NOMBREL":"CD. MADERO 5",
    "MUNICIPIOL":"CIUDAD MADERO",
    "ESTADO":"TAMAULIPAS",
    "TIENDA":"SUCURSAL",
    "LATITUD":22.26771,
    "LONGITUD":-97.83907
  },
  {
    "IDUNIDAD":"1061",
    "NOMBREL":"VILLAHERMOSA 8",
    "MUNICIPIOL":"CENTRO",
    "ESTADO":"TABASCO",
    "TIENDA":"SUCURSAL",
    "LATITUD":17.99093,
    "LONGITUD":-92.91337
  },
  {
    "IDUNIDAD":"1062",
    "NOMBREL":"HERMOSILLO 9",
    "MUNICIPIOL":"HERMOSILLO",
    "ESTADO":"SONORA",
    "TIENDA":"SUCURSAL",
    "LATITUD":29.01362,
    "LONGITUD":-110.93151
  },
  {
    "IDUNIDAD":"1065",
    "NOMBREL":"CHIMALHUACAN 4",
    "MUNICIPIOL":"CHIMALHUACAN",
    "ESTADO":"ESTADO DE MEXICO",
    "TIENDA":"SUCURSAL",
    "LATITUD":19.43561,
    "LONGITUD":-98.95201
  },
  {
    "IDUNIDAD":"1066",
    "NOMBREL":"MATEHUALA 2",
    "MUNICIPIOL":"MATEHUALA",
    "ESTADO":"SAN LUIS POTOSI",
    "TIENDA":"SUCURSAL",
    "LATITUD":23.64752,
    "LONGITUD":-100.64366
  },
  {
    "IDUNIDAD":"1067",
    "NOMBREL":"MAZATLAN 8",
    "MUNICIPIOL":"MAZATLAN",
    "ESTADO":"SINALOA",
    "TIENDA":"SUCURSAL",
    "LATITUD":23.21135,
    "LONGITUD":-106.42073
  },
  {
    "IDUNIDAD":"107",
    "NOMBREL":"GUADALAJARA 5",
    "MUNICIPIOL":"ZAPOPAN",
    "ESTADO":"JALISCO",
    "TIENDA":"SUCURSAL",
    "LATITUD":20.72327,
    "LONGITUD":-103.39084
  },
  {
    "IDUNIDAD":"1070",
    "NOMBREL":"TEPALCATEPEC 2",
    "MUNICIPIOL":"TEPALCATEPEC",
    "ESTADO":"MICHOACAN",
    "TIENDA":"SUCURSAL",
    "LATITUD":19.19001,
    "LONGITUD":-102.84566
  },
  {
    "IDUNIDAD":"1071",
    "NOMBREL":"TECATE 3",
    "MUNICIPIOL":"TECATE",
    "ESTADO":"BAJA CALIFORNIA",
    "TIENDA":"SUCURSAL",
    "LATITUD":32.5667,
    "LONGITUD":-116.63188
  },
  {
    "IDUNIDAD":"1072",
    "NOMBREL":"IRAPUATO 10",
    "MUNICIPIOL":"IRAPUATO",
    "ESTADO":"GUANAJUATO",
    "TIENDA":"SUCURSAL",
    "LATITUD":20.675798,
    "LONGITUD":-101.345939
  },
  {
    "IDUNIDAD":"1073",
    "NOMBREL":"SAN LUIS POTOSI 22",
    "MUNICIPIOL":"SAN LUIS POTOSI",
    "ESTADO":"SAN LUIS POTOSI",
    "TIENDA":"SUCURSAL",
    "LATITUD":22.14825,
    "LONGITUD":-100.97503
  },
  {
    "IDUNIDAD":"1074",
    "NOMBREL":"CD. OBREGON 8",
    "MUNICIPIOL":"CAJEME",
    "ESTADO":"SONORA",
    "TIENDA":"SUCURSAL",
    "LATITUD":27.49312,
    "LONGITUD":-109.93291
  },
  {
    "IDUNIDAD":"1076",
    "NOMBREL":"NEZAHUALCOYOTL 13",
    "MUNICIPIOL":"NEZAHUALCOYOTL",
    "ESTADO":"ESTADO DE MEXICO",
    "TIENDA":"SUCURSAL",
    "LATITUD":19.41125,
    "LONGITUD":-99.00592
  },
  {
    "IDUNIDAD":"1077",
    "NOMBREL":"GUADALAJARA 39",
    "MUNICIPIOL":"GUADALAJARA",
    "ESTADO":"JALISCO",
    "TIENDA":"SUCURSAL",
    "LATITUD":20.64466,
    "LONGITUD":-103.28625
  },
  {
    "IDUNIDAD":"1078",
    "NOMBREL":"PUEBLA 18",
    "MUNICIPIOL":"PUEBLA",
    "ESTADO":"PUEBLA",
    "TIENDA":"SUCURSAL",
    "LATITUD":19.05921,
    "LONGITUD":-98.22494
  },
  {
    "IDUNIDAD":"1079",
    "NOMBREL":"GUADALAJARA 40",
    "MUNICIPIOL":"GUADALAJARA",
    "ESTADO":"JALISCO",
    "TIENDA":"SUCURSAL",
    "LATITUD":20.62097,
    "LONGITUD":-103.35995
  },
  {
    "IDUNIDAD":"1080",
    "NOMBREL":"TIJUANA 26",
    "MUNICIPIOL":"TIJUANA",
    "ESTADO":"BAJA CALIFORNIA",
    "TIENDA":"SUCURSAL",
    "LATITUD":32.50414,
    "LONGITUD":-116.86428
  },
  {
    "IDUNIDAD":"1081",
    "NOMBREL":"NOGALES 2",
    "MUNICIPIOL":"NOGALES",
    "ESTADO":"SONORA",
    "TIENDA":"SUCURSAL",
    "LATITUD":31.32223,
    "LONGITUD":-110.94625
  },
  {
    "IDUNIDAD":"1082",
    "NOMBREL":"CD. JUAREZ 11",
    "MUNICIPIOL":"JUAREZ",
    "ESTADO":"CHIHUAHUA",
    "TIENDA":"SUCURSAL",
    "LATITUD":31.67357,
    "LONGITUD":-106.41582
  },
  {
    "IDUNIDAD":"1083",
    "NOMBREL":"GUADALAJARA 41",
    "MUNICIPIOL":"GUADALAJARA",
    "ESTADO":"JALISCO",
    "TIENDA":"SUCURSAL",
    "LATITUD":20.64584,
    "LONGITUD":-103.38173
  },
  {
    "IDUNIDAD":"1084",
    "NOMBREL":"CUERNAVACA 15",
    "MUNICIPIOL":"CUERNAVACA",
    "ESTADO":"MORELOS",
    "TIENDA":"SUCURSAL",
    "LATITUD":18.92153,
    "LONGITUD":-99.20608
  },
  {
    "IDUNIDAD":"1085",
    "NOMBREL":"CD. JUAREZ 12",
    "MUNICIPIOL":"JUAREZ",
    "ESTADO":"CHIHUAHUA",
    "TIENDA":"SUCURSAL",
    "LATITUD":31.71227,
    "LONGITUD":-106.41097
  },
  {
    "IDUNIDAD":"1086",
    "NOMBREL":"HERMOSILLO 10",
    "MUNICIPIOL":"HERMOSILLO",
    "ESTADO":"SONORA",
    "TIENDA":"SUCURSAL",
    "LATITUD":29.10473,
    "LONGITUD":-110.97243
  },
  {
    "IDUNIDAD":"1087",
    "NOMBREL":"MEXICALI 22",
    "MUNICIPIOL":"MEXICALI",
    "ESTADO":"BAJA CALIFORNIA",
    "TIENDA":"SUCURSAL",
    "LATITUD":32.65796,
    "LONGITUD":-115.47742
  },
  {
    "IDUNIDAD":"1088",
    "NOMBREL":"OCOTLAN 2",
    "MUNICIPIOL":"OCOTLAN",
    "ESTADO":"JALISCO",
    "TIENDA":"SUCURSAL",
    "LATITUD":20.35131,
    "LONGITUD":-102.7724
  },
  {
    "IDUNIDAD":"109",
    "NOMBREL":"MEXICALI 1",
    "MUNICIPIOL":"MEXICALI",
    "ESTADO":"BAJA CALIFORNIA",
    "TIENDA":"SUCURSAL",
    "LATITUD":32.66164,
    "LONGITUD":-115.49212
  },
  {
    "IDUNIDAD":"1090",
    "NOMBREL":"GUADALUPE 2",
    "MUNICIPIOL":"GUADALUPE",
    "ESTADO":"ZACATECAS",
    "TIENDA":"SUCURSAL",
    "LATITUD":22.75372,
    "LONGITUD":-102.5184
  },
  {
    "IDUNIDAD":"1092",
    "NOMBREL":"CD. CONSTITUCION 2 BCS",
    "MUNICIPIOL":"COMONDU",
    "ESTADO":"BAJA CALIFORNIA SUR",
    "TIENDA":"SUCURSAL",
    "LATITUD":25.03103,
    "LONGITUD":-111.66707
  },
  {
    "IDUNIDAD":"1093",
    "NOMBREL":"VILLAHERMOSA 10",
    "MUNICIPIOL":"CENTRO",
    "ESTADO":"TABASCO",
    "TIENDA":"SUCURSAL",
    "LATITUD":17.97662,
    "LONGITUD":-92.95233
  },
  {
    "IDUNIDAD":"1094",
    "NOMBREL":"DEL VALLE",
    "MUNICIPIOL":"BENITO JUAREZ",
    "ESTADO":"DISTRITO FEDERAL",
    "TIENDA":"SUCURSAL",
    "LATITUD":19.38616,
    "LONGITUD":-99.17344
  },
  {
    "IDUNIDAD":"1095",
    "NOMBREL":"CHIMALHUACAN 6",
    "MUNICIPIOL":"CHIMALHUACAN",
    "ESTADO":"ESTADO DE MEXICO",
    "TIENDA":"SUCURSAL",
    "LATITUD":19.43943,
    "LONGITUD":-98.94689
  },
  {
    "IDUNIDAD":"1096",
    "NOMBREL":"PROGRESO NACIONAL 2",
    "MUNICIPIOL":"GUSTAVO A MADERO",
    "ESTADO":"DISTRITO FEDERAL",
    "TIENDA":"SUCURSAL",
    "LATITUD":19.52118,
    "LONGITUD":-99.15912
  },
  {
    "IDUNIDAD":"1097",
    "NOMBREL":"COYOACAN 2",
    "MUNICIPIOL":"COYOACAN",
    "ESTADO":"DISTRITO FEDERAL",
    "TIENDA":"SUCURSAL",
    "LATITUD":19.31164,
    "LONGITUD":-99.15082
  },
  {
    "IDUNIDAD":"1098",
    "NOMBREL":"CD. MADERO 6",
    "MUNICIPIOL":"CIUDAD MADERO",
    "ESTADO":"TAMAULIPAS",
    "TIENDA":"SUCURSAL",
    "LATITUD":22.25322,
    "LONGITUD":-97.83069
  },
  {
    "IDUNIDAD":"1099",
    "NOMBREL":"SAHUAYO 3",
    "MUNICIPIOL":"SAHUAYO",
    "ESTADO":"MICHOACAN",
    "TIENDA":"SUCURSAL",
    "LATITUD":20.05708,
    "LONGITUD":-102.72235
  },
  {
    "IDUNIDAD":"11",
    "NOMBREL":"TAMPICO 1",
    "MUNICIPIOL":"TAMPICO",
    "ESTADO":"TAMAULIPAS",
    "TIENDA":"SUCURSAL",
    "LATITUD":22.21553,
    "LONGITUD":-97.85511
  },
  {
    "IDUNIDAD":"110",
    "NOMBREL":"CORDOBA 2",
    "MUNICIPIOL":"CORDOBA",
    "ESTADO":"VERACRUZ",
    "TIENDA":"SUCURSAL",
    "LATITUD":18.89211,
    "LONGITUD":-96.93103
  },
  {
    "IDUNIDAD":"1100",
    "NOMBREL":"APIZACO 5",
    "MUNICIPIOL":"APIZACO",
    "ESTADO":"TLAXCALA",
    "TIENDA":"SUCURSAL",
    "LATITUD":19.41235,
    "LONGITUD":-98.1413
  },
  {
    "IDUNIDAD":"1101",
    "NOMBREL":"EL MOLINITO 3",
    "MUNICIPIOL":"NAUCALPAN DE JUAREZ",
    "ESTADO":"ESTADO DE MEXICO",
    "TIENDA":"SUCURSAL",
    "LATITUD":19.458104,
    "LONGITUD":-99.236917
  },
  {
    "IDUNIDAD":"1102",
    "NOMBREL":"RIO GRANDE 3",
    "MUNICIPIOL":"RIO GRANDE",
    "ESTADO":"ZACATECAS",
    "TIENDA":"SUCURSAL",
    "LATITUD":23.82907,
    "LONGITUD":-103.03364
  },
  {
    "IDUNIDAD":"1103",
    "NOMBREL":"HERMOSILLO 11",
    "MUNICIPIOL":"HERMOSILLO",
    "ESTADO":"SONORA",
    "TIENDA":"SUCURSAL",
    "LATITUD":29.06145,
    "LONGITUD":-110.96657
  },
  {
    "IDUNIDAD":"1104",
    "NOMBREL":"AGUASCALIENTES 13",
    "MUNICIPIOL":"AGUASCALIENTES",
    "ESTADO":"AGUASCALIENTES",
    "TIENDA":"SUCURSAL",
    "LATITUD":21.88259,
    "LONGITUD":-102.29789
  },
  {
    "IDUNIDAD":"1105",
    "NOMBREL":"TIJUANA 27",
    "MUNICIPIOL":"TIJUANA",
    "ESTADO":"BAJA CALIFORNIA",
    "TIENDA":"SUCURSAL",
    "LATITUD":32.51139,
    "LONGITUD":-116.90582
  },
  {
    "IDUNIDAD":"1106",
    "NOMBREL":"CUAUTITLAN IZCALLI 2",
    "MUNICIPIOL":"CUAUTITLAN IZCALLI",
    "ESTADO":"ESTADO DE MEXICO",
    "TIENDA":"SUCURSAL",
    "LATITUD":19.62916,
    "LONGITUD":-99.23085
  },
  {
    "IDUNIDAD":"1107",
    "NOMBREL":"TULTITLAN 1",
    "MUNICIPIOL":"TULTITLAN",
    "ESTADO":"ESTADO DE MEXICO",
    "TIENDA":"SUCURSAL",
    "LATITUD":19.59697,
    "LONGITUD":-99.16658
  },
  {
    "IDUNIDAD":"1108",
    "NOMBREL":"REYNOSA 12",
    "MUNICIPIOL":"REYNOSA",
    "ESTADO":"TAMAULIPAS",
    "TIENDA":"SUCURSAL",
    "LATITUD":26.05549,
    "LONGITUD":-98.28834
  },
  {
    "IDUNIDAD":"1109",
    "NOMBREL":"GUADALAJARA 44",
    "MUNICIPIOL":"GUADALAJARA",
    "ESTADO":"JALISCO",
    "TIENDA":"SUCURSAL",
    "LATITUD":20.69546,
    "LONGITUD":-103.32224
  },
  {
    "IDUNIDAD":"111",
    "NOMBREL":"POLANCO 1",
    "MUNICIPIOL":"MIGUEL HIDALGO",
    "ESTADO":"DISTRITO FEDERAL",
    "TIENDA":"SUCURSAL",
    "LATITUD":19.43732,
    "LONGITUD":-99.20107
  },
  {
    "IDUNIDAD":"1110",
    "NOMBREL":"MINATITLAN 4",
    "MUNICIPIOL":"MINATITLAN",
    "ESTADO":"VERACRUZ",
    "TIENDA":"SUCURSAL",
    "LATITUD":17.9877,
    "LONGITUD":-94.55197
  },
  {
    "IDUNIDAD":"1111",
    "NOMBREL":"MEXICALI 23",
    "MUNICIPIOL":"MEXICALI",
    "ESTADO":"BAJA CALIFORNIA",
    "TIENDA":"SUCURSAL",
    "LATITUD":32.611091,
    "LONGITUD":-115.40503
  },
  {
    "IDUNIDAD":"1112",
    "NOMBREL":"MEXICALI 24",
    "MUNICIPIOL":"MEXICALI",
    "ESTADO":"BAJA CALIFORNIA",
    "TIENDA":"SUCURSAL",
    "LATITUD":32.58962,
    "LONGITUD":-115.39465
  },
  {
    "IDUNIDAD":"1113",
    "NOMBREL":"MEXICALI 25",
    "MUNICIPIOL":"MEXICALI",
    "ESTADO":"BAJA CALIFORNIA",
    "TIENDA":"SUCURSAL",
    "LATITUD":32.64856,
    "LONGITUD":-115.42413
  },
  {
    "IDUNIDAD":"1114",
    "NOMBREL":"SAN LUIS RIO COLORADO 3",
    "MUNICIPIOL":"SAN LUIS RIO COLORADO",
    "ESTADO":"SONORA",
    "TIENDA":"SUCURSAL",
    "LATITUD":32.45951,
    "LONGITUD":-114.75572
  },
  {
    "IDUNIDAD":"1116",
    "NOMBREL":"MEXICALI 26",
    "MUNICIPIOL":"MEXICALI",
    "ESTADO":"BAJA CALIFORNIA",
    "TIENDA":"SUCURSAL",
    "LATITUD":32.64444,
    "LONGITUD":-115.52014
  },
  {
    "IDUNIDAD":"1118",
    "NOMBREL":"CULIACAN 15",
    "MUNICIPIOL":"CULIACAN",
    "ESTADO":"SINALOA",
    "TIENDA":"SUCURSAL",
    "LATITUD":24.822072,
    "LONGITUD":-107.415771
  },
  {
    "IDUNIDAD":"1119",
    "NOMBREL":"TAMPICO 13",
    "MUNICIPIOL":"TAMPICO",
    "ESTADO":"TAMAULIPAS",
    "TIENDA":"SUCURSAL",
    "LATITUD":22.21746,
    "LONGITUD":-97.8581
  },
  {
    "IDUNIDAD":"112",
    "NOMBREL":"MONTERREY 26",
    "MUNICIPIOL":"GUADALUPE",
    "ESTADO":"NUEVO LEON",
    "TIENDA":"SUCURSAL",
    "LATITUD":25.68859,
    "LONGITUD":-100.22991
  },
  {
    "IDUNIDAD":"1120",
    "NOMBREL":"AGUASCALIENTES 14",
    "MUNICIPIOL":"AGUASCALIENTES",
    "ESTADO":"AGUASCALIENTES",
    "TIENDA":"SUCURSAL",
    "LATITUD":21.884823,
    "LONGITUD":-102.295849
  },
  {
    "IDUNIDAD":"1121",
    "NOMBREL":"ACAPULCO 22",
    "MUNICIPIOL":"ACAPULCO DE JUAREZ",
    "ESTADO":"GUERRERO",
    "TIENDA":"SUCURSAL",
    "LATITUD":16.860635,
    "LONGITUD":-99.881695
  },
  {
    "IDUNIDAD":"1122",
    "NOMBREL":"DURANGO 10",
    "MUNICIPIOL":"DURANGO",
    "ESTADO":"DURANGO",
    "TIENDA":"SUCURSAL",
    "LATITUD":24.02697,
    "LONGITUD":-104.65297
  },
  {
    "IDUNIDAD":"1123",
    "NOMBREL":"DURANGO 11",
    "MUNICIPIOL":"DURANGO",
    "ESTADO":"DURANGO",
    "TIENDA":"SUCURSAL",
    "LATITUD":23.999428,
    "LONGITUD":-104.662514
  },
  {
    "IDUNIDAD":"1124",
    "NOMBREL":"DURANGO 12",
    "MUNICIPIOL":"DURANGO",
    "ESTADO":"DURANGO",
    "TIENDA":"SUCURSAL",
    "LATITUD":24.024938,
    "LONGITUD":-104.668252
  },
  {
    "IDUNIDAD":"1125",
    "NOMBREL":"NUEVA ATZACOALCO",
    "MUNICIPIOL":"GUSTAVO A MADERO",
    "ESTADO":"DISTRITO FEDERAL",
    "TIENDA":"SUCURSAL",
    "LATITUD":19.501288,
    "LONGITUD":-99.085193
  },
  {
    "IDUNIDAD":"1126",
    "NOMBREL":"COSAMALOAPAN 3",
    "MUNICIPIOL":"COSAMALOAPAN",
    "ESTADO":"VERACRUZ",
    "TIENDA":"SUCURSAL",
    "LATITUD":18.36547,
    "LONGITUD":-95.79306
  },
  {
    "IDUNIDAD":"1127",
    "NOMBREL":"TOLUCA 7",
    "MUNICIPIOL":"TOLUCA",
    "ESTADO":"ESTADO DE MEXICO",
    "TIENDA":"SUCURSAL",
    "LATITUD":19.28751,
    "LONGITUD":-99.6725
  },
  {
    "IDUNIDAD":"1128",
    "NOMBREL":"LOS CABOS 2",
    "MUNICIPIOL":"LOS CABOS",
    "ESTADO":"BAJA CALIFORNIA SUR",
    "TIENDA":"SUCURSAL",
    "LATITUD":22.9035,
    "LONGITUD":-109.93151
  },
  {
    "IDUNIDAD":"1129",
    "NOMBREL":"BOCA DEL RIO 3",
    "MUNICIPIOL":"BOCA DEL RIO",
    "ESTADO":"VERACRUZ",
    "TIENDA":"SUCURSAL",
    "LATITUD":19.1301,
    "LONGITUD":-96.12372
  },
  {
    "IDUNIDAD":"113",
    "NOMBREL":"GUAYMAS 1",
    "MUNICIPIOL":"GUAYMAS",
    "ESTADO":"SONORA",
    "TIENDA":"SUCURSAL",
    "LATITUD":27.923338,
    "LONGITUD":-110.893972
  },
  {
    "IDUNIDAD":"1130",
    "NOMBREL":"SAN FRANCISCO DEL RINCON 2",
    "MUNICIPIOL":"SAN FRANCISCO DEL RINCON",
    "ESTADO":"GUANAJUATO",
    "TIENDA":"SUCURSAL",
    "LATITUD":21.028812,
    "LONGITUD":-101.860541
  },
  {
    "IDUNIDAD":"1131",
    "NOMBREL":"LEON 12",
    "MUNICIPIOL":"LEON",
    "ESTADO":"GUANAJUATO",
    "TIENDA":"SUCURSAL",
    "LATITUD":21.13584,
    "LONGITUD":-101.68737
  },
  {
    "IDUNIDAD":"1133",
    "NOMBREL":"ROMA 2",
    "MUNICIPIOL":"CUAUHTEMOC",
    "ESTADO":"DISTRITO FEDERAL",
    "TIENDA":"SUCURSAL",
    "LATITUD":19.41543,
    "LONGITUD":-99.15639
  },
  {
    "IDUNIDAD":"1134",
    "NOMBREL":"GUADALAJARA 45",
    "MUNICIPIOL":"GUADALAJARA",
    "ESTADO":"JALISCO",
    "TIENDA":"SUCURSAL",
    "LATITUD":20.65063,
    "LONGITUD":-103.37128
  },
  {
    "IDUNIDAD":"1135",
    "NOMBREL":"NEZAHUALCOYOTL 14",
    "MUNICIPIOL":"NEZAHUALCOYOTL",
    "ESTADO":"ESTADO DE MEXICO",
    "TIENDA":"SUCURSAL",
    "LATITUD":19.38801,
    "LONGITUD":-99.0039
  },
  {
    "IDUNIDAD":"1136",
    "NOMBREL":"MODERNA",
    "MUNICIPIOL":"BENITO JUAREZ",
    "ESTADO":"DISTRITO FEDERAL",
    "TIENDA":"SUCURSAL",
    "LATITUD":19.391285,
    "LONGITUD":-99.132553
  },
  {
    "IDUNIDAD":"1137",
    "NOMBREL":"ACAPULCO 23",
    "MUNICIPIOL":"ACAPULCO DE JUAREZ",
    "ESTADO":"GUERRERO",
    "TIENDA":"SUCURSAL",
    "LATITUD":16.85148,
    "LONGITUD":-99.90702
  },
  {
    "IDUNIDAD":"1138",
    "NOMBREL":"HUIMANGUILLO 2",
    "MUNICIPIOL":"HUIMANGUILLO",
    "ESTADO":"TABASCO",
    "TIENDA":"SUCURSAL",
    "LATITUD":17.83572,
    "LONGITUD":-93.39191
  },
  {
    "IDUNIDAD":"1139",
    "NOMBREL":"ORIZABA 4",
    "MUNICIPIOL":"ORIZABA",
    "ESTADO":"VERACRUZ",
    "TIENDA":"SUCURSAL",
    "LATITUD":18.85393,
    "LONGITUD":-97.1002
  },
  {
    "IDUNIDAD":"114",
    "NOMBREL":"GUADALAJARA 8",
    "MUNICIPIOL":"ZAPOPAN",
    "ESTADO":"JALISCO",
    "TIENDA":"SUCURSAL",
    "LATITUD":20.73044,
    "LONGITUD":-103.40361
  },
  {
    "IDUNIDAD":"1140",
    "NOMBREL":"CD. VICTORIA 5",
    "MUNICIPIOL":"VICTORIA",
    "ESTADO":"TAMAULIPAS",
    "TIENDA":"SUCURSAL",
    "LATITUD":23.72852,
    "LONGITUD":-99.15294
  },
  {
    "IDUNIDAD":"1141",
    "NOMBREL":"APIZACO 7",
    "MUNICIPIOL":"APIZACO",
    "ESTADO":"TLAXCALA",
    "TIENDA":"SUCURSAL",
    "LATITUD":19.41478,
    "LONGITUD":-98.14088
  },
  {
    "IDUNIDAD":"1142",
    "NOMBREL":"MORELIA 6",
    "MUNICIPIOL":"MORELIA",
    "ESTADO":"MICHOACAN",
    "TIENDA":"SUCURSAL",
    "LATITUD":19.69619,
    "LONGITUD":-101.1935
  },
  {
    "IDUNIDAD":"1143",
    "NOMBREL":"ALTAMIRA 3",
    "MUNICIPIOL":"ALTAMIRA",
    "ESTADO":"TAMAULIPAS",
    "TIENDA":"SUCURSAL",
    "LATITUD":22.39185,
    "LONGITUD":-97.93682
  },
  {
    "IDUNIDAD":"1144",
    "NOMBREL":"BOCA DEL RIO 4",
    "MUNICIPIOL":"BOCA DEL RIO",
    "ESTADO":"VERACRUZ",
    "TIENDA":"SUCURSAL",
    "LATITUD":19.14924,
    "LONGITUD":-96.12851
  },
  {
    "IDUNIDAD":"1145",
    "NOMBREL":"ATIZAPAN 1",
    "MUNICIPIOL":"ATIZAPAN DE ZARAGOZA",
    "ESTADO":"ESTADO DE MEXICO",
    "TIENDA":"SUCURSAL",
    "LATITUD":19.57452,
    "LONGITUD":-99.21873
  },
  {
    "IDUNIDAD":"1146",
    "NOMBREL":"HUIMANGUILLO 3",
    "MUNICIPIOL":"HUIMANGUILLO",
    "ESTADO":"TABASCO",
    "TIENDA":"SUCURSAL",
    "LATITUD":17.83297,
    "LONGITUD":-93.39174
  },
  {
    "IDUNIDAD":"1148",
    "NOMBREL":"SAN LUIS POTOSI 23",
    "MUNICIPIOL":"SAN LUIS POTOSI",
    "ESTADO":"SAN LUIS POTOSI",
    "TIENDA":"SUCURSAL",
    "LATITUD":22.15241,
    "LONGITUD":-100.97488
  },
  {
    "IDUNIDAD":"1149",
    "NOMBREL":"ACAYUCAN 3",
    "MUNICIPIOL":"ACAYUCAN",
    "ESTADO":"VERACRUZ",
    "TIENDA":"SUCURSAL",
    "LATITUD":17.94946,
    "LONGITUD":-94.90617
  },
  {
    "IDUNIDAD":"115",
    "NOMBREL":"GUADALAJARA 9",
    "MUNICIPIOL":"GUADALAJARA",
    "ESTADO":"JALISCO",
    "TIENDA":"SUCURSAL",
    "LATITUD":20.68158,
    "LONGITUD":-103.33812
  },
  {
    "IDUNIDAD":"1150",
    "NOMBREL":"CULIACAN 16",
    "MUNICIPIOL":"CULIACAN",
    "ESTADO":"SINALOA",
    "TIENDA":"SUCURSAL",
    "LATITUD":24.82009,
    "LONGITUD":-107.41914
  },
  {
    "IDUNIDAD":"1151",
    "NOMBREL":"VERACRUZ 17",
    "MUNICIPIOL":"VERACRUZ",
    "ESTADO":"VERACRUZ",
    "TIENDA":"SUCURSAL",
    "LATITUD":19.19082,
    "LONGITUD":-96.16569
  },
  {
    "IDUNIDAD":"1152",
    "NOMBREL":"SAN LUIS POTOSI 24",
    "MUNICIPIOL":"SAN LUIS POTOSI",
    "ESTADO":"SAN LUIS POTOSI",
    "TIENDA":"SUCURSAL",
    "LATITUD":22.15255,
    "LONGITUD":-100.97716
  },
  {
    "IDUNIDAD":"1153",
    "NOMBREL":"TUXTLA GUTIERREZ 11",
    "MUNICIPIOL":"TUXTLA GUTIERREZ",
    "ESTADO":"CHIAPAS",
    "TIENDA":"SUCURSAL",
    "LATITUD":16.74271,
    "LONGITUD":-93.10171
  },
  {
    "IDUNIDAD":"1154",
    "NOMBREL":"TAMAZUNCHALE 2",
    "MUNICIPIOL":"TAMAZUNCHALE",
    "ESTADO":"SAN LUIS POTOSI",
    "TIENDA":"SUCURSAL",
    "LATITUD":21.259508,
    "LONGITUD":-98.788064
  },
  {
    "IDUNIDAD":"1155",
    "NOMBREL":"LEON 13",
    "MUNICIPIOL":"LEON",
    "ESTADO":"GUANAJUATO",
    "TIENDA":"SUCURSAL",
    "LATITUD":21.10937,
    "LONGITUD":-101.68877
  },
  {
    "IDUNIDAD":"1158",
    "NOMBREL":"CHIMALHUACAN 7",
    "MUNICIPIOL":"CHIMALHUACAN",
    "ESTADO":"ESTADO DE MEXICO",
    "TIENDA":"SUCURSAL",
    "LATITUD":19.43162,
    "LONGITUD":-98.93132
  },
  {
    "IDUNIDAD":"1159",
    "NOMBREL":"IZTACALCO 2",
    "MUNICIPIOL":"IZTACALCO",
    "ESTADO":"DISTRITO FEDERAL",
    "TIENDA":"SUCURSAL",
    "LATITUD":19.395226,
    "LONGITUD":-99.076236
  },
  {
    "IDUNIDAD":"116",
    "NOMBREL":"GUADALAJARA 7",
    "MUNICIPIOL":"GUADALAJARA",
    "ESTADO":"JALISCO",
    "TIENDA":"SUCURSAL",
    "LATITUD":20.67308,
    "LONGITUD":-103.32357
  },
  {
    "IDUNIDAD":"1160",
    "NOMBREL":"TAPACHULA 8",
    "MUNICIPIOL":"TAPACHULA",
    "ESTADO":"CHIAPAS",
    "TIENDA":"SUCURSAL",
    "LATITUD":14.86985,
    "LONGITUD":-92.30379
  },
  {
    "IDUNIDAD":"1161",
    "NOMBREL":"TIJUANA 28",
    "MUNICIPIOL":"TIJUANA",
    "ESTADO":"BAJA CALIFORNIA",
    "TIENDA":"SUCURSAL",
    "LATITUD":32.49981,
    "LONGITUD":-116.96775
  },
  {
    "IDUNIDAD":"1163",
    "NOMBREL":"YAUTEPEC 2",
    "MUNICIPIOL":"YAUTEPEC",
    "ESTADO":"MORELOS",
    "TIENDA":"SUCURSAL",
    "LATITUD":18.88744,
    "LONGITUD":-99.06162
  },
  {
    "IDUNIDAD":"1164",
    "NOMBREL":"CONTEPEC",
    "MUNICIPIOL":"CONTEPEC",
    "ESTADO":"MICHOACAN",
    "TIENDA":"SUCURSAL",
    "LATITUD":19.95438,
    "LONGITUD":-100.16471
  },
  {
    "IDUNIDAD":"1165",
    "NOMBREL":"MATEHUALA 3",
    "MUNICIPIOL":"MATEHUALA",
    "ESTADO":"SAN LUIS POTOSI",
    "TIENDA":"SUCURSAL",
    "LATITUD":23.64546,
    "LONGITUD":-100.64311
  },
  {
    "IDUNIDAD":"1166",
    "NOMBREL":"NARVARTE 2",
    "MUNICIPIOL":"BENITO JUAREZ",
    "ESTADO":"DISTRITO FEDERAL",
    "TIENDA":"SUCURSAL",
    "LATITUD":19.3846,
    "LONGITUD":-99.1522
  },
  {
    "IDUNIDAD":"1167",
    "NOMBREL":"PUEBLA 19",
    "MUNICIPIOL":"PUEBLA",
    "ESTADO":"PUEBLA",
    "TIENDA":"SUCURSAL",
    "LATITUD":19.0698,
    "LONGITUD":-98.13552
  },
  {
    "IDUNIDAD":"1168",
    "NOMBREL":"CAMPECHE 6",
    "MUNICIPIOL":"CAMPECHE",
    "ESTADO":"CAMPECHE",
    "TIENDA":"SUCURSAL",
    "LATITUD":19.83732,
    "LONGITUD":-90.54002
  },
  {
    "IDUNIDAD":"1169",
    "NOMBREL":"VERACRUZ 18",
    "MUNICIPIOL":"VERACRUZ",
    "ESTADO":"VERACRUZ",
    "TIENDA":"SUCURSAL",
    "LATITUD":19.20491,
    "LONGITUD":-96.16109
  },
  {
    "IDUNIDAD":"117",
    "NOMBREL":"GUADALAJARA 10",
    "MUNICIPIOL":"GUADALAJARA",
    "ESTADO":"JALISCO",
    "TIENDA":"SUCURSAL",
    "LATITUD":20.68519,
    "LONGITUD":-103.36804
  },
  {
    "IDUNIDAD":"1170",
    "NOMBREL":"VILLAHERMOSA 11",
    "MUNICIPIOL":"CENTRO",
    "ESTADO":"TABASCO",
    "TIENDA":"SUCURSAL",
    "LATITUD":17.99428,
    "LONGITUD":-92.92215
  },
  {
    "IDUNIDAD":"1171",
    "NOMBREL":"VILLAHERMOSA 12",
    "MUNICIPIOL":"CENTRO",
    "ESTADO":"TABASCO",
    "TIENDA":"SUCURSAL",
    "LATITUD":17.98449,
    "LONGITUD":-92.94814
  },
  {
    "IDUNIDAD":"1173",
    "NOMBREL":"ACAPULCO 24",
    "MUNICIPIOL":"ACAPULCO DE JUAREZ",
    "ESTADO":"GUERRERO",
    "TIENDA":"SUCURSAL",
    "LATITUD":16.87517,
    "LONGITUD":-99.87584
  },
  {
    "IDUNIDAD":"1174",
    "NOMBREL":"ACAPULCO 25",
    "MUNICIPIOL":"ACAPULCO DE JUAREZ",
    "ESTADO":"GUERRERO",
    "TIENDA":"SUCURSAL",
    "LATITUD":16.84293,
    "LONGITUD":-99.84883
  },
  {
    "IDUNIDAD":"1176",
    "NOMBREL":"CHETUMAL 7",
    "MUNICIPIOL":"OTHON P BLANCO",
    "ESTADO":"QUINTANA ROO",
    "TIENDA":"SUCURSAL",
    "LATITUD":18.51249,
    "LONGITUD":-88.32256
  },
  {
    "IDUNIDAD":"1177",
    "NOMBREL":"TAPACHULA 9",
    "MUNICIPIOL":"TAPACHULA",
    "ESTADO":"CHIAPAS",
    "TIENDA":"SUCURSAL",
    "LATITUD":14.89937,
    "LONGITUD":-92.26783
  },
  {
    "IDUNIDAD":"1178",
    "NOMBREL":"TLALPAN 6",
    "MUNICIPIOL":"TLALPAN",
    "ESTADO":"DISTRITO FEDERAL",
    "TIENDA":"SUCURSAL",
    "LATITUD":19.285,
    "LONGITUD":-99.17551
  },
  {
    "IDUNIDAD":"1179",
    "NOMBREL":"VILLAHERMOSA 13",
    "MUNICIPIOL":"CENTRO",
    "ESTADO":"TABASCO",
    "TIENDA":"SUCURSAL",
    "LATITUD":18.02365,
    "LONGITUD":-92.92332
  },
  {
    "IDUNIDAD":"118",
    "NOMBREL":"HERMOSILLO 4",
    "MUNICIPIOL":"HERMOSILLO",
    "ESTADO":"SONORA",
    "TIENDA":"SUCURSAL",
    "LATITUD":29.0375,
    "LONGITUD":-110.959272
  },
  {
    "IDUNIDAD":"1180",
    "NOMBREL":"CAMPECHE 7",
    "MUNICIPIOL":"CAMPECHE",
    "ESTADO":"CAMPECHE",
    "TIENDA":"SUCURSAL",
    "LATITUD":19.83743,
    "LONGITUD":-90.53553
  },
  {
    "IDUNIDAD":"1181",
    "NOMBREL":"CD. VICTORIA 6",
    "MUNICIPIOL":"VICTORIA",
    "ESTADO":"TAMAULIPAS",
    "TIENDA":"SUCURSAL",
    "LATITUD":23.73119,
    "LONGITUD":-99.1427
  },
  {
    "IDUNIDAD":"1183",
    "NOMBREL":"TUXTLA GUTIERREZ 12",
    "MUNICIPIOL":"TUXTLA GUTIERREZ",
    "ESTADO":"CHIAPAS",
    "TIENDA":"SUCURSAL",
    "LATITUD":16.74002,
    "LONGITUD":-93.11386
  },
  {
    "IDUNIDAD":"1184",
    "NOMBREL":"CARDENAS 4",
    "MUNICIPIOL":"CARDENAS",
    "ESTADO":"TABASCO",
    "TIENDA":"SUCURSAL",
    "LATITUD":17.992298,
    "LONGITUD":-93.378138
  },
  {
    "IDUNIDAD":"1187",
    "NOMBREL":"CD. JUAREZ 13",
    "MUNICIPIOL":"JUAREZ",
    "ESTADO":"CHIHUAHUA",
    "TIENDA":"SUCURSAL",
    "LATITUD":31.70237,
    "LONGITUD":-106.46056
  },
  {
    "IDUNIDAD":"1188",
    "NOMBREL":"TAPACHULA 10",
    "MUNICIPIOL":"TAPACHULA",
    "ESTADO":"CHIAPAS",
    "TIENDA":"SUCURSAL",
    "LATITUD":14.90581,
    "LONGITUD":-92.26239
  },
  {
    "IDUNIDAD":"1189",
    "NOMBREL":"TAMPICO 14",
    "MUNICIPIOL":"TAMPICO",
    "ESTADO":"TAMAULIPAS",
    "TIENDA":"SUCURSAL",
    "LATITUD":22.25859,
    "LONGITUD":-97.87609
  },
  {
    "IDUNIDAD":"119",
    "NOMBREL":"GUADALAJARA 11",
    "MUNICIPIOL":"GUADALAJARA",
    "ESTADO":"JALISCO",
    "TIENDA":"SUCURSAL",
    "LATITUD":20.69481,
    "LONGITUD":-103.29602
  },
  {
    "IDUNIDAD":"1190",
    "NOMBREL":"LEON 14",
    "MUNICIPIOL":"LEON",
    "ESTADO":"GUANAJUATO",
    "TIENDA":"SUCURSAL",
    "LATITUD":21.10036,
    "LONGITUD":-101.67294
  },
  {
    "IDUNIDAD":"1192",
    "NOMBREL":"TAPACHULA 11",
    "MUNICIPIOL":"TAPACHULA",
    "ESTADO":"CHIAPAS",
    "TIENDA":"SUCURSAL",
    "LATITUD":14.88642,
    "LONGITUD":-92.2549
  },
  {
    "IDUNIDAD":"1194",
    "NOMBREL":"LEON 15",
    "MUNICIPIOL":"LEON",
    "ESTADO":"GUANAJUATO",
    "TIENDA":"SUCURSAL",
    "LATITUD":21.11926,
    "LONGITUD":-101.68217
  },
  {
    "IDUNIDAD":"1195",
    "NOMBREL":"APIZACO 8",
    "MUNICIPIOL":"APIZACO",
    "ESTADO":"TLAXCALA",
    "TIENDA":"SUCURSAL",
    "LATITUD":19.41391,
    "LONGITUD":-98.14238
  },
  {
    "IDUNIDAD":"1196",
    "NOMBREL":"TUXTLA GUTIERREZ 13",
    "MUNICIPIOL":"TUXTLA GUTIERREZ",
    "ESTADO":"CHIAPAS",
    "TIENDA":"SUCURSAL",
    "LATITUD":16.74707,
    "LONGITUD":-93.0822
  },
  {
    "IDUNIDAD":"1197",
    "NOMBREL":"CHIMALHUACAN 8",
    "MUNICIPIOL":"CHIMALHUACAN",
    "ESTADO":"ESTADO DE MEXICO",
    "TIENDA":"SUCURSAL",
    "LATITUD":19.44383,
    "LONGITUD":-98.96285
  },
  {
    "IDUNIDAD":"1198",
    "NOMBREL":"CHAMULA",
    "MUNICIPIOL":"CHAMULA",
    "ESTADO":"CHIAPAS",
    "TIENDA":"SUCURSAL",
    "LATITUD":16.78728,
    "LONGITUD":-92.69078
  },
  {
    "IDUNIDAD":"1199",
    "NOMBREL":"TULTITLAN 2",
    "MUNICIPIOL":"TULTITLAN",
    "ESTADO":"ESTADO DE MEXICO",
    "TIENDA":"SUCURSAL",
    "LATITUD":19.64551,
    "LONGITUD":-99.17079
  },
  {
    "IDUNIDAD":"12",
    "NOMBREL":"NUEVO LAREDO 1",
    "MUNICIPIOL":"NUEVO LAREDO",
    "ESTADO":"TAMAULIPAS",
    "TIENDA":"SUCURSAL",
    "LATITUD":27.49548,
    "LONGITUD":-99.50739
  },
  {
    "IDUNIDAD":"120",
    "NOMBREL":"CD. OBREGON 4",
    "MUNICIPIOL":"CAJEME",
    "ESTADO":"SONORA",
    "TIENDA":"SUCURSAL",
    "LATITUD":27.51145,
    "LONGITUD":-109.92589
  },
  {
    "IDUNIDAD":"1200",
    "NOMBREL":"RIO GRANDE 4",
    "MUNICIPIOL":"RIO GRANDE",
    "ESTADO":"ZACATECAS",
    "TIENDA":"SUCURSAL",
    "LATITUD":23.82765,
    "LONGITUD":-103.03395
  },
  {
    "IDUNIDAD":"1201",
    "NOMBREL":"MINATITLAN 5",
    "MUNICIPIOL":"MINATITLAN",
    "ESTADO":"VERACRUZ",
    "TIENDA":"SUCURSAL",
    "LATITUD":18.00146,
    "LONGITUD":-94.52884
  },
  {
    "IDUNIDAD":"1202",
    "NOMBREL":"BOCA DEL RIO 5",
    "MUNICIPIOL":"BOCA DEL RIO",
    "ESTADO":"VERACRUZ",
    "TIENDA":"SUCURSAL",
    "LATITUD":19.16511,
    "LONGITUD":-96.11721
  },
  {
    "IDUNIDAD":"1203",
    "NOMBREL":"FORTIN 2",
    "MUNICIPIOL":"FORTIN",
    "ESTADO":"VERACRUZ",
    "TIENDA":"SUCURSAL",
    "LATITUD":18.89995,
    "LONGITUD":-96.99765
  },
  {
    "IDUNIDAD":"1204",
    "NOMBREL":"TAMPICO 15",
    "MUNICIPIOL":"TAMPICO",
    "ESTADO":"TAMAULIPAS",
    "TIENDA":"SUCURSAL",
    "LATITUD":22.30521,
    "LONGITUD":-97.88181
  },
  {
    "IDUNIDAD":"1205",
    "NOMBREL":"CD. MADERO 7",
    "MUNICIPIOL":"CIUDAD MADERO",
    "ESTADO":"TAMAULIPAS",
    "TIENDA":"SUCURSAL",
    "LATITUD":22.26219,
    "LONGITUD":-97.83995
  },
  {
    "IDUNIDAD":"1206",
    "NOMBREL":"TUXTLA GUTIERREZ 14",
    "MUNICIPIOL":"TUXTLA GUTIERREZ",
    "ESTADO":"CHIAPAS",
    "TIENDA":"SUCURSAL",
    "LATITUD":16.75809,
    "LONGITUD":-93.11629
  },
  {
    "IDUNIDAD":"1207",
    "NOMBREL":"LORENZO BOTURINI",
    "MUNICIPIOL":"VENUSTIANO CARRANZA",
    "ESTADO":"DISTRITO FEDERAL",
    "TIENDA":"SUCURSAL",
    "LATITUD":19.41664,
    "LONGITUD":-99.11661
  },
  {
    "IDUNIDAD":"1208",
    "NOMBREL":"COZUMEL 5",
    "MUNICIPIOL":"COZUMEL",
    "ESTADO":"QUINTANA ROO",
    "TIENDA":"SUCURSAL",
    "LATITUD":20.50731,
    "LONGITUD":-86.94445
  },
  {
    "IDUNIDAD":"121",
    "NOMBREL":"APIZACO 2",
    "MUNICIPIOL":"APIZACO",
    "ESTADO":"TLAXCALA",
    "TIENDA":"SUCURSAL",
    "LATITUD":19.41056,
    "LONGITUD":-98.1446
  },
  {
    "IDUNIDAD":"1210",
    "NOMBREL":"RIO BRAVO 3",
    "MUNICIPIOL":"RIO BRAVO",
    "ESTADO":"TAMAULIPAS",
    "TIENDA":"SUCURSAL",
    "LATITUD":25.99134,
    "LONGITUD":-98.08344
  },
  {
    "IDUNIDAD":"1211",
    "NOMBREL":"CD. JUAREZ 14",
    "MUNICIPIOL":"JUAREZ",
    "ESTADO":"CHIHUAHUA",
    "TIENDA":"SUCURSAL",
    "LATITUD":31.70164,
    "LONGITUD":-106.41583
  },
  {
    "IDUNIDAD":"1212",
    "NOMBREL":"TUXTLA GUTIERREZ 15",
    "MUNICIPIOL":"TUXTLA GUTIERREZ",
    "ESTADO":"CHIAPAS",
    "TIENDA":"SUCURSAL",
    "LATITUD":16.76418,
    "LONGITUD":-93.18426
  },
  {
    "IDUNIDAD":"1214",
    "NOMBREL":"CAMPECHE 8",
    "MUNICIPIOL":"CAMPECHE",
    "ESTADO":"CAMPECHE",
    "TIENDA":"SUCURSAL",
    "LATITUD":19.83932,
    "LONGITUD":-90.49054
  },
  {
    "IDUNIDAD":"1215",
    "NOMBREL":"SOLEDAD DE GRACIANO SANCHEZ 2",
    "MUNICIPIOL":"SOLEDAD DE GRACIANO SANCHEZ",
    "ESTADO":"SAN LUIS POTOSI",
    "TIENDA":"SUCURSAL",
    "LATITUD":22.15139,
    "LONGITUD":-100.89941
  },
  {
    "IDUNIDAD":"1216",
    "NOMBREL":"SOLEDAD DE GRACIANO SANCHEZ 3",
    "MUNICIPIOL":"SOLEDAD DE GRACIANO SANCHEZ",
    "ESTADO":"SAN LUIS POTOSI",
    "TIENDA":"SUCURSAL",
    "LATITUD":22.16813,
    "LONGITUD":-100.9429
  },
  {
    "IDUNIDAD":"1217",
    "NOMBREL":"NARVARTE 3",
    "MUNICIPIOL":"BENITO JUAREZ",
    "ESTADO":"DISTRITO FEDERAL",
    "TIENDA":"SUCURSAL",
    "LATITUD":19.39599,
    "LONGITUD":-99.15786
  },
  {
    "IDUNIDAD":"1218",
    "NOMBREL":"TLAXCALA 3",
    "MUNICIPIOL":"TLAXCALA",
    "ESTADO":"TLAXCALA",
    "TIENDA":"SUCURSAL",
    "LATITUD":19.32038,
    "LONGITUD":-98.23912
  },
  {
    "IDUNIDAD":"1219",
    "NOMBREL":"TLALPAN 7",
    "MUNICIPIOL":"TLALPAN",
    "ESTADO":"DISTRITO FEDERAL",
    "TIENDA":"SUCURSAL",
    "LATITUD":19.29521,
    "LONGITUD":-99.11479
  },
  {
    "IDUNIDAD":"122",
    "NOMBREL":"TORREON 3",
    "MUNICIPIOL":"TORREON",
    "ESTADO":"COAHUILA",
    "TIENDA":"SUCURSAL",
    "LATITUD":25.53684,
    "LONGITUD":-103.46315
  },
  {
    "IDUNIDAD":"1220",
    "NOMBREL":"CIUDAD DEL CARMEN 2",
    "MUNICIPIOL":"CARMEN",
    "ESTADO":"CAMPECHE",
    "TIENDA":"SUCURSAL",
    "LATITUD":18.64241,
    "LONGITUD":-91.83196
  },
  {
    "IDUNIDAD":"1221",
    "NOMBREL":"CHIHUAHUA 9",
    "MUNICIPIOL":"CHIHUAHUA",
    "ESTADO":"CHIHUAHUA",
    "TIENDA":"SUCURSAL",
    "LATITUD":28.62896,
    "LONGITUD":-106.08351
  },
  {
    "IDUNIDAD":"1223",
    "NOMBREL":"CD. JUAREZ 15",
    "MUNICIPIOL":"JUAREZ",
    "ESTADO":"CHIHUAHUA",
    "TIENDA":"SUCURSAL",
    "LATITUD":31.66024,
    "LONGITUD":-106.44201
  },
  {
    "IDUNIDAD":"1224",
    "NOMBREL":"PUEBLA 20",
    "MUNICIPIOL":"PUEBLA",
    "ESTADO":"PUEBLA",
    "TIENDA":"SUCURSAL",
    "LATITUD":19.01701,
    "LONGITUD":-98.20092
  },
  {
    "IDUNIDAD":"1225",
    "NOMBREL":"TAMPICO 16",
    "MUNICIPIOL":"TAMPICO",
    "ESTADO":"TAMAULIPAS",
    "TIENDA":"SUCURSAL",
    "LATITUD":22.31547,
    "LONGITUD":-97.87875
  },
  {
    "IDUNIDAD":"1226",
    "NOMBREL":"HUAUCHINANGO 2",
    "MUNICIPIOL":"HUAUCHINANGO",
    "ESTADO":"PUEBLA",
    "TIENDA":"SUCURSAL",
    "LATITUD":20.17515,
    "LONGITUD":-98.04966
  },
  {
    "IDUNIDAD":"1227",
    "NOMBREL":"NUEVO LAREDO 11",
    "MUNICIPIOL":"NUEVO LAREDO",
    "ESTADO":"TAMAULIPAS",
    "TIENDA":"SUCURSAL",
    "LATITUD":27.48845,
    "LONGITUD":-99.50765
  },
  {
    "IDUNIDAD":"1228",
    "NOMBREL":"UNIVERSIDAD 2",
    "MUNICIPIOL":"BENITO JUAREZ",
    "ESTADO":"DISTRITO FEDERAL",
    "TIENDA":"SUCURSAL",
    "LATITUD":19.36974,
    "LONGITUD":-99.16559
  },
  {
    "IDUNIDAD":"1229",
    "NOMBREL":"CD. JUAREZ 16",
    "MUNICIPIOL":"JUAREZ",
    "ESTADO":"CHIHUAHUA",
    "TIENDA":"SUCURSAL",
    "LATITUD":31.62509,
    "LONGITUD":-106.38236
  },
  {
    "IDUNIDAD":"123",
    "NOMBREL":"JALAPA 2",
    "MUNICIPIOL":"XALAPA",
    "ESTADO":"VERACRUZ",
    "TIENDA":"SUCURSAL",
    "LATITUD":19.53054,
    "LONGITUD":-96.92364
  },
  {
    "IDUNIDAD":"1231",
    "NOMBREL":"PUEBLA 21",
    "MUNICIPIOL":"PUEBLA",
    "ESTADO":"PUEBLA",
    "TIENDA":"SUCURSAL",
    "LATITUD":19.0431,
    "LONGITUD":-98.23355
  },
  {
    "IDUNIDAD":"1233",
    "NOMBREL":"TAMPICO 17",
    "MUNICIPIOL":"TAMPICO",
    "ESTADO":"TAMAULIPAS",
    "TIENDA":"SUCURSAL",
    "LATITUD":22.24916,
    "LONGITUD":-97.86737
  },
  {
    "IDUNIDAD":"1234",
    "NOMBREL":"ORIZABA 5",
    "MUNICIPIOL":"ORIZABA",
    "ESTADO":"VERACRUZ",
    "TIENDA":"SUCURSAL",
    "LATITUD":18.84874,
    "LONGITUD":-97.09203
  },
  {
    "IDUNIDAD":"1236",
    "NOMBREL":"TUXTLA GUTIERREZ 16",
    "MUNICIPIOL":"TUXTLA GUTIERREZ",
    "ESTADO":"CHIAPAS",
    "TIENDA":"SUCURSAL",
    "LATITUD":16.77643,
    "LONGITUD":-93.10794
  },
  {
    "IDUNIDAD":"1237",
    "NOMBREL":"CD. JUAREZ 17",
    "MUNICIPIOL":"JUAREZ",
    "ESTADO":"CHIHUAHUA",
    "TIENDA":"SUCURSAL",
    "LATITUD":31.68254,
    "LONGITUD":-106.3727
  },
  {
    "IDUNIDAD":"1239",
    "NOMBREL":"CD. JUAREZ 18",
    "MUNICIPIOL":"JUAREZ",
    "ESTADO":"CHIHUAHUA",
    "TIENDA":"SUCURSAL",
    "LATITUD":31.737773,
    "LONGITUD":-106.440813
  },
  {
    "IDUNIDAD":"124",
    "NOMBREL":"JALAPA 3",
    "MUNICIPIOL":"XALAPA",
    "ESTADO":"VERACRUZ",
    "TIENDA":"SUCURSAL",
    "LATITUD":19.52779,
    "LONGITUD":-96.91125
  },
  {
    "IDUNIDAD":"1240",
    "NOMBREL":"CANCUN 13",
    "MUNICIPIOL":"BENITO JUAREZ",
    "ESTADO":"QUINTANA ROO",
    "TIENDA":"SUCURSAL",
    "LATITUD":21.176412,
    "LONGITUD":-86.856847
  },
  {
    "IDUNIDAD":"1241",
    "NOMBREL":"LOMA BONITA 2",
    "MUNICIPIOL":"LOMA BONITA",
    "ESTADO":"OAXACA",
    "TIENDA":"SUCURSAL",
    "LATITUD":18.1081,
    "LONGITUD":-95.88047
  },
  {
    "IDUNIDAD":"1242",
    "NOMBREL":"MINATITLAN 6",
    "MUNICIPIOL":"COSOLEACAQUE",
    "ESTADO":"VERACRUZ",
    "TIENDA":"SUCURSAL",
    "LATITUD":18.00881,
    "LONGITUD":-94.55124
  },
  {
    "IDUNIDAD":"1243",
    "NOMBREL":"CANCUN 14",
    "MUNICIPIOL":"BENITO JUAREZ",
    "ESTADO":"QUINTANA ROO",
    "TIENDA":"SUCURSAL",
    "LATITUD":21.19033,
    "LONGITUD":-86.8283
  },
  {
    "IDUNIDAD":"1244",
    "NOMBREL":"CHIHUAHUA 11",
    "MUNICIPIOL":"CHIHUAHUA",
    "ESTADO":"CHIHUAHUA",
    "TIENDA":"SUCURSAL",
    "LATITUD":28.66558,
    "LONGITUD":-106.11116
  },
  {
    "IDUNIDAD":"1245",
    "NOMBREL":"NEZAHUALCOYOTL 16",
    "MUNICIPIOL":"NEZAHUALCOYOTL",
    "ESTADO":"ESTADO DE MEXICO",
    "TIENDA":"SUCURSAL",
    "LATITUD":19.40364,
    "LONGITUD":-98.99525
  },
  {
    "IDUNIDAD":"1246",
    "NOMBREL":"MORELIA 7",
    "MUNICIPIOL":"MORELIA",
    "ESTADO":"MICHOACAN",
    "TIENDA":"SUCURSAL",
    "LATITUD":19.69335,
    "LONGITUD":-101.19184
  },
  {
    "IDUNIDAD":"1247",
    "NOMBREL":"CANCUN 15",
    "MUNICIPIOL":"BENITO JUAREZ",
    "ESTADO":"QUINTANA ROO",
    "TIENDA":"SUCURSAL",
    "LATITUD":21.15472,
    "LONGITUD":-86.84405
  },
  {
    "IDUNIDAD":"1248",
    "NOMBREL":"CHIHUAHUA 12",
    "MUNICIPIOL":"CHIHUAHUA",
    "ESTADO":"CHIHUAHUA",
    "TIENDA":"SUCURSAL",
    "LATITUD":28.777,
    "LONGITUD":-106.1678
  },
  {
    "IDUNIDAD":"1249",
    "NOMBREL":"VERACRUZ 20",
    "MUNICIPIOL":"VERACRUZ",
    "ESTADO":"VERACRUZ",
    "TIENDA":"SUCURSAL",
    "LATITUD":19.170636,
    "LONGITUD":-96.160677
  },
  {
    "IDUNIDAD":"125",
    "NOMBREL":"CUERNAVACA 4",
    "MUNICIPIOL":"CUERNAVACA",
    "ESTADO":"MORELOS",
    "TIENDA":"SUCURSAL",
    "LATITUD":18.92283,
    "LONGITUD":-99.21001
  },
  {
    "IDUNIDAD":"1250",
    "NOMBREL":"MEXICALI 27",
    "MUNICIPIOL":"MEXICALI",
    "ESTADO":"BAJA CALIFORNIA",
    "TIENDA":"SUCURSAL",
    "LATITUD":32.6309,
    "LONGITUD":-115.461
  },
  {
    "IDUNIDAD":"1251",
    "NOMBREL":"MERIDA 12",
    "MUNICIPIOL":"MERIDA",
    "ESTADO":"YUCATAN",
    "TIENDA":"SUCURSAL",
    "LATITUD":21.06825,
    "LONGITUD":-89.64487
  },
  {
    "IDUNIDAD":"1252",
    "NOMBREL":"SAN LUIS POTOSI 27",
    "MUNICIPIOL":"SAN LUIS POTOSI",
    "ESTADO":"SAN LUIS POTOSI",
    "TIENDA":"SUCURSAL",
    "LATITUD":22.160142,
    "LONGITUD":-100.97734
  },
  {
    "IDUNIDAD":"1253",
    "NOMBREL":"TUXTLA GUTIERREZ 17",
    "MUNICIPIOL":"TUXTLA GUTIERREZ",
    "ESTADO":"CHIAPAS",
    "TIENDA":"SUCURSAL",
    "LATITUD":16.74992,
    "LONGITUD":-93.13032
  },
  {
    "IDUNIDAD":"1254",
    "NOMBREL":"PARRAL 4",
    "MUNICIPIOL":"HIDALGO DEL PARRAL",
    "ESTADO":"CHIHUAHUA",
    "TIENDA":"SUCURSAL",
    "LATITUD":26.9332,
    "LONGITUD":-105.669
  },
  {
    "IDUNIDAD":"1255",
    "NOMBREL":"CD. MADERO 8",
    "MUNICIPIOL":"CIUDAD MADERO",
    "ESTADO":"TAMAULIPAS",
    "TIENDA":"SUCURSAL",
    "LATITUD":22.24,
    "LONGITUD":-97.84114
  },
  {
    "IDUNIDAD":"1256",
    "NOMBREL":"MEXICALI 28",
    "MUNICIPIOL":"MEXICALI",
    "ESTADO":"BAJA CALIFORNIA",
    "TIENDA":"SUCURSAL",
    "LATITUD":32.59934,
    "LONGITUD":-115.38885
  },
  {
    "IDUNIDAD":"1257",
    "NOMBREL":"TAMPICO 18",
    "MUNICIPIOL":"TAMPICO",
    "ESTADO":"TAMAULIPAS",
    "TIENDA":"SUCURSAL",
    "LATITUD":22.32084,
    "LONGITUD":-97.86068
  },
  {
    "IDUNIDAD":"1258",
    "NOMBREL":"CULIACAN 17",
    "MUNICIPIOL":"CULIACAN",
    "ESTADO":"SINALOA",
    "TIENDA":"SUCURSAL",
    "LATITUD":24.75517,
    "LONGITUD":-107.3864
  },
  {
    "IDUNIDAD":"1259",
    "NOMBREL":"SAN LUIS RIO COLORADO 4",
    "MUNICIPIOL":"SAN LUIS RIO COLORADO",
    "ESTADO":"SONORA",
    "TIENDA":"SUCURSAL",
    "LATITUD":32.44915,
    "LONGITUD":-114.74779
  },
  {
    "IDUNIDAD":"126",
    "NOMBREL":"CORDOBA 1",
    "MUNICIPIOL":"CORDOBA",
    "ESTADO":"VERACRUZ",
    "TIENDA":"SUCURSAL",
    "LATITUD":18.89353,
    "LONGITUD":-96.93114
  },
  {
    "IDUNIDAD":"1260",
    "NOMBREL":"MEXICALI 29",
    "MUNICIPIOL":"MEXICALI",
    "ESTADO":"BAJA CALIFORNIA",
    "TIENDA":"SUCURSAL",
    "LATITUD":32.62214,
    "LONGITUD":-115.52448
  },
  {
    "IDUNIDAD":"1261",
    "NOMBREL":"CHIMALHUACAN 9",
    "MUNICIPIOL":"CHIMALHUACAN",
    "ESTADO":"ESTADO DE MEXICO",
    "TIENDA":"SUCURSAL",
    "LATITUD":19.4338,
    "LONGITUD":-98.9751
  },
  {
    "IDUNIDAD":"1262",
    "NOMBREL":"CD. JUAREZ 19",
    "MUNICIPIOL":"JUAREZ",
    "ESTADO":"CHIHUAHUA",
    "TIENDA":"SUCURSAL",
    "LATITUD":31.721101,
    "LONGITUD":-106.45115
  },
  {
    "IDUNIDAD":"1263",
    "NOMBREL":"IXTAPALUCA 6",
    "MUNICIPIOL":"IXTAPALUCA",
    "ESTADO":"ESTADO DE MEXICO",
    "TIENDA":"SUCURSAL",
    "LATITUD":19.31013,
    "LONGITUD":-98.91994
  },
  {
    "IDUNIDAD":"1264",
    "NOMBREL":"REYNOSA 13",
    "MUNICIPIOL":"REYNOSA",
    "ESTADO":"TAMAULIPAS",
    "TIENDA":"SUCURSAL",
    "LATITUD":26.02202,
    "LONGITUD":-98.26704
  },
  {
    "IDUNIDAD":"1265",
    "NOMBREL":"CD. CONSTITUCION 3 BCS",
    "MUNICIPIOL":"COMONDU",
    "ESTADO":"BAJA CALIFORNIA SUR",
    "TIENDA":"SUCURSAL",
    "LATITUD":25.033275,
    "LONGITUD":-111.646427
  },
  {
    "IDUNIDAD":"1267",
    "NOMBREL":"MONTERREY 53",
    "MUNICIPIOL":"SANTA CATARINA",
    "ESTADO":"NUEVO LEON",
    "TIENDA":"SUCURSAL",
    "LATITUD":25.67359,
    "LONGITUD":-100.4653
  },
  {
    "IDUNIDAD":"1268",
    "NOMBREL":"LA PAZ 5",
    "MUNICIPIOL":"LA PAZ",
    "ESTADO":"BAJA CALIFORNIA SUR",
    "TIENDA":"SUCURSAL",
    "LATITUD":24.146661,
    "LONGITUD":-110.319236
  },
  {
    "IDUNIDAD":"1269",
    "NOMBREL":"JIQUIPILAS 1",
    "MUNICIPIOL":"JIQUIPILAS",
    "ESTADO":"CHIAPAS",
    "TIENDA":"SUCURSAL",
    "LATITUD":16.66802,
    "LONGITUD":-93.65039
  },
  {
    "IDUNIDAD":"127",
    "NOMBREL":"ORIZABA 1",
    "MUNICIPIOL":"ORIZABA",
    "ESTADO":"VERACRUZ",
    "TIENDA":"SUCURSAL",
    "LATITUD":18.84603,
    "LONGITUD":-97.10417
  },
  {
    "IDUNIDAD":"1270",
    "NOMBREL":"CORREGIDORA",
    "MUNICIPIOL":"CORREGIDORA",
    "ESTADO":"QUERETARO",
    "TIENDA":"SUCURSAL",
    "LATITUD":20.5465,
    "LONGITUD":-100.39886
  },
  {
    "IDUNIDAD":"1271",
    "NOMBREL":"NEZAHUALCOYOTL 17",
    "MUNICIPIOL":"NEZAHUALCOYOTL",
    "ESTADO":"ESTADO DE MEXICO",
    "TIENDA":"SUCURSAL",
    "LATITUD":19.41564,
    "LONGITUD":-99.05187
  },
  {
    "IDUNIDAD":"1272",
    "NOMBREL":"VILLAHERMOSA 14",
    "MUNICIPIOL":"CENTRO",
    "ESTADO":"TABASCO",
    "TIENDA":"SUCURSAL",
    "LATITUD":17.98947,
    "LONGITUD":-92.93606
  },
  {
    "IDUNIDAD":"1273",
    "NOMBREL":"VILLAHERMOSA 15",
    "MUNICIPIOL":"CENTRO",
    "ESTADO":"TABASCO",
    "TIENDA":"SUCURSAL",
    "LATITUD":17.974324,
    "LONGITUD":-92.909898
  },
  {
    "IDUNIDAD":"1274",
    "NOMBREL":"VILLAHERMOSA 16",
    "MUNICIPIOL":"CENTRO",
    "ESTADO":"TABASCO",
    "TIENDA":"SUCURSAL",
    "LATITUD":18.104065,
    "LONGITUD":-92.861757
  },
  {
    "IDUNIDAD":"1276",
    "NOMBREL":"AMERICAS UNIDAS",
    "MUNICIPIOL":"BENITO JUAREZ",
    "ESTADO":"DISTRITO FEDERAL",
    "TIENDA":"SUCURSAL",
    "LATITUD":19.38129,
    "LONGITUD":-99.14344
  },
  {
    "IDUNIDAD":"1277",
    "NOMBREL":"NARVARTE 4",
    "MUNICIPIOL":"BENITO JUAREZ",
    "ESTADO":"DISTRITO FEDERAL",
    "TIENDA":"SUCURSAL",
    "LATITUD":19.40236,
    "LONGITUD":-99.1505
  },
  {
    "IDUNIDAD":"1278",
    "NOMBREL":"CHAMPOTON 2",
    "MUNICIPIOL":"CHAMPOTON",
    "ESTADO":"CAMPECHE",
    "TIENDA":"SUCURSAL",
    "LATITUD":19.34167,
    "LONGITUD":-90.725608
  },
  {
    "IDUNIDAD":"1279",
    "NOMBREL":"SAN VICENTE CHICOLOAPAN",
    "MUNICIPIOL":"CHICOLOAPAN DE JUAREZ",
    "ESTADO":"ESTADO DE MEXICO",
    "TIENDA":"SUCURSAL",
    "LATITUD":19.41518,
    "LONGITUD":-98.90201
  },
  {
    "IDUNIDAD":"128",
    "NOMBREL":"HOSPITAL GENERAL",
    "MUNICIPIOL":"CUAUHTEMOC",
    "ESTADO":"DISTRITO FEDERAL",
    "TIENDA":"SUCURSAL",
    "LATITUD":19.41346,
    "LONGITUD":-99.15353
  },
  {
    "IDUNIDAD":"1280",
    "NOMBREL":"NOGALES 3",
    "MUNICIPIOL":"NOGALES",
    "ESTADO":"SONORA",
    "TIENDA":"SUCURSAL",
    "LATITUD":31.29358,
    "LONGITUD":-110.93662
  },
  {
    "IDUNIDAD":"1281",
    "NOMBREL":"GUADALAJARA 50",
    "MUNICIPIOL":"GUADALAJARA",
    "ESTADO":"JALISCO",
    "TIENDA":"SUCURSAL",
    "LATITUD":20.7049,
    "LONGITUD":-103.31716
  },
  {
    "IDUNIDAD":"1282",
    "NOMBREL":"TABLAS DE SAN AGUSTIN 1",
    "MUNICIPIOL":"GUSTAVO A MADERO",
    "ESTADO":"DISTRITO FEDERAL",
    "TIENDA":"SUCURSAL",
    "LATITUD":19.46358,
    "LONGITUD":-99.11156
  },
  {
    "IDUNIDAD":"1283",
    "NOMBREL":"PEITA DE JALTEMBA 1",
    "MUNICIPIOL":"COMPOSTELA",
    "ESTADO":"NAYARIT",
    "TIENDA":"SUCURSAL",
    "LATITUD":21.03888,
    "LONGITUD":-105.24718
  },
  {
    "IDUNIDAD":"1284",
    "NOMBREL":"TUXPAN 2",
    "MUNICIPIOL":"TUXPAN",
    "ESTADO":"NAYARIT",
    "TIENDA":"SUCURSAL",
    "LATITUD":21.94507,
    "LONGITUD":-105.29906
  },
  {
    "IDUNIDAD":"1285",
    "NOMBREL":"TORREON 8",
    "MUNICIPIOL":"TORREON",
    "ESTADO":"COAHUILA",
    "TIENDA":"SUCURSAL",
    "LATITUD":25.53076,
    "LONGITUD":-103.41522
  },
  {
    "IDUNIDAD":"1286",
    "NOMBREL":"MONTERREY 54",
    "MUNICIPIOL":"MONTERREY",
    "ESTADO":"NUEVO LEON",
    "TIENDA":"SUCURSAL",
    "LATITUD":25.66703,
    "LONGITUD":-100.28189
  },
  {
    "IDUNIDAD":"1287",
    "NOMBREL":"GUADALAJARA 51",
    "MUNICIPIOL":"GUADALAJARA",
    "ESTADO":"JALISCO",
    "TIENDA":"SUCURSAL",
    "LATITUD":20.652142,
    "LONGITUD":-103.311675
  },
  {
    "IDUNIDAD":"1288",
    "NOMBREL":"TORREON 9",
    "MUNICIPIOL":"TORREON",
    "ESTADO":"COAHUILA",
    "TIENDA":"SUCURSAL",
    "LATITUD":25.56467,
    "LONGITUD":-103.42871
  },
  {
    "IDUNIDAD":"1289",
    "NOMBREL":"SAN FRANCISCO DEL RINCON 3",
    "MUNICIPIOL":"SAN FRANCISCO DEL RINCON",
    "ESTADO":"GUANAJUATO",
    "TIENDA":"SUCURSAL",
    "LATITUD":21.01728,
    "LONGITUD":-101.85748
  },
  {
    "IDUNIDAD":"129",
    "NOMBREL":"EDUARDO MOLINA",
    "MUNICIPIOL":"GUSTAVO A MADERO",
    "ESTADO":"DISTRITO FEDERAL",
    "TIENDA":"SUCURSAL",
    "LATITUD":19.45616,
    "LONGITUD":-99.1071
  },
  {
    "IDUNIDAD":"1290",
    "NOMBREL":"VERACRUZ 21",
    "MUNICIPIOL":"VERACRUZ",
    "ESTADO":"VERACRUZ",
    "TIENDA":"SUCURSAL",
    "LATITUD":19.19913,
    "LONGITUD":-96.13874
  },
  {
    "IDUNIDAD":"1291",
    "NOMBREL":"MATEHUALA 4",
    "MUNICIPIOL":"MATEHUALA",
    "ESTADO":"SAN LUIS POTOSI",
    "TIENDA":"SUCURSAL",
    "LATITUD":23.655493,
    "LONGITUD":-100.642774
  },
  {
    "IDUNIDAD":"1292",
    "NOMBREL":"VERTIZ 1",
    "MUNICIPIOL":"BENITO JUAREZ",
    "ESTADO":"DISTRITO FEDERAL",
    "TIENDA":"SUCURSAL",
    "LATITUD":19.375427,
    "LONGITUD":-99.153872
  },
  {
    "IDUNIDAD":"1294",
    "NOMBREL":"EBANO 2",
    "MUNICIPIOL":"SAN FELIPE",
    "ESTADO":"SAN LUIS POTOSI",
    "TIENDA":"SUCURSAL",
    "LATITUD":22.213657,
    "LONGITUD":-98.375352
  },
  {
    "IDUNIDAD":"1297",
    "NOMBREL":"REYNOSA 14",
    "MUNICIPIOL":"REYNOSA",
    "ESTADO":"TAMAULIPAS",
    "TIENDA":"SUCURSAL",
    "LATITUD":26.068,
    "LONGITUD":-98.29499
  },
  {
    "IDUNIDAD":"1298",
    "NOMBREL":"IRAPUATO 12",
    "MUNICIPIOL":"IRAPUATO",
    "ESTADO":"GUANAJUATO",
    "TIENDA":"SUCURSAL",
    "LATITUD":20.6731,
    "LONGITUD":-101.348
  },
  {
    "IDUNIDAD":"1299",
    "NOMBREL":"ALPES 1, D.F.",
    "MUNICIPIOL":"ALVARO OBREGON",
    "ESTADO":"DISTRITO FEDERAL",
    "TIENDA":"SUCURSAL",
    "LATITUD":19.36273,
    "LONGITUD":-99.19107
  },
  {
    "IDUNIDAD":"13",
    "NOMBREL":"INSURGENTES 1",
    "MUNICIPIOL":"CUAUHTEMOC",
    "ESTADO":"DISTRITO FEDERAL",
    "TIENDA":"SUCURSAL",
    "LATITUD":19.40688,
    "LONGITUD":-99.16825
  },
  {
    "IDUNIDAD":"130",
    "NOMBREL":"DURANGO 2",
    "MUNICIPIOL":"DURANGO",
    "ESTADO":"DURANGO",
    "TIENDA":"SUCURSAL",
    "LATITUD":24.04074,
    "LONGITUD":-104.63039
  },
  {
    "IDUNIDAD":"1300",
    "NOMBREL":"MEXICALI 30",
    "MUNICIPIOL":"MEXICALI",
    "ESTADO":"BAJA CALIFORNIA",
    "TIENDA":"SUCURSAL",
    "LATITUD":32.59856,
    "LONGITUD":-115.50643
  },
  {
    "IDUNIDAD":"1301",
    "NOMBREL":"ECATEPEC 9",
    "MUNICIPIOL":"ECATEPEC DE MORELOS",
    "ESTADO":"ESTADO DE MEXICO",
    "TIENDA":"SUCURSAL",
    "LATITUD":19.57591,
    "LONGITUD":-99.04277
  },
  {
    "IDUNIDAD":"1302",
    "NOMBREL":"MINATITLAN 7",
    "MUNICIPIOL":"MINATITLAN",
    "ESTADO":"VERACRUZ",
    "TIENDA":"SUCURSAL",
    "LATITUD":17.984315,
    "LONGITUD":-94.545234
  },
  {
    "IDUNIDAD":"1303",
    "NOMBREL":"MORELIA 8",
    "MUNICIPIOL":"MORELIA",
    "ESTADO":"MICHOACAN",
    "TIENDA":"SUCURSAL",
    "LATITUD":19.729565,
    "LONGITUD":-101.198515
  },
  {
    "IDUNIDAD":"1304",
    "NOMBREL":"LOS CABOS 3",
    "MUNICIPIOL":"LOS CABOS",
    "ESTADO":"BAJA CALIFORNIA SUR",
    "TIENDA":"SUCURSAL",
    "LATITUD":22.888714,
    "LONGITUD":-109.912534
  },
  {
    "IDUNIDAD":"1305",
    "NOMBREL":"FELIX CUEVAS",
    "MUNICIPIOL":"BENITO JUAREZ",
    "ESTADO":"DISTRITO FEDERAL",
    "TIENDA":"SUCURSAL",
    "LATITUD":19.373039,
    "LONGITUD":-99.176584
  },
  {
    "IDUNIDAD":"1306",
    "NOMBREL":"CORDOBA 6",
    "MUNICIPIOL":"CORDOBA",
    "ESTADO":"VERACRUZ",
    "TIENDA":"SUCURSAL",
    "LATITUD":18.895628,
    "LONGITUD":-96.929286
  },
  {
    "IDUNIDAD":"1307",
    "NOMBREL":"CHETUMAL 8",
    "MUNICIPIOL":"OTHON P BLANCO",
    "ESTADO":"QUINTANA ROO",
    "TIENDA":"SUCURSAL",
    "LATITUD":18.51588,
    "LONGITUD":-88.33446
  },
  {
    "IDUNIDAD":"1308",
    "NOMBREL":"CHIHUAHUA 13",
    "MUNICIPIOL":"CAMARGO",
    "ESTADO":"CHIHUAHUA",
    "TIENDA":"SUCURSAL",
    "LATITUD":28.67608,
    "LONGITUD":-106.10384
  },
  {
    "IDUNIDAD":"1309",
    "NOMBREL":"JAMAY 1",
    "MUNICIPIOL":"JAMAY",
    "ESTADO":"JALISCO",
    "TIENDA":"SUCURSAL",
    "LATITUD":20.29104,
    "LONGITUD":-102.70669
  },
  {
    "IDUNIDAD":"131",
    "NOMBREL":"CULIACAN 4",
    "MUNICIPIOL":"CULIACAN",
    "ESTADO":"SINALOA",
    "TIENDA":"SUCURSAL",
    "LATITUD":24.80738,
    "LONGITUD":-107.39494
  },
  {
    "IDUNIDAD":"1310",
    "NOMBREL":"JALAPA 5",
    "MUNICIPIOL":"XALAPA",
    "ESTADO":"VERACRUZ",
    "TIENDA":"SUCURSAL",
    "LATITUD":19.55614,
    "LONGITUD":-96.90506
  },
  {
    "IDUNIDAD":"1311",
    "NOMBREL":"TUXTEPEC 4",
    "MUNICIPIOL":"SAN JUAN BAUTISTA TUXTEPEC",
    "ESTADO":"OAXACA",
    "TIENDA":"SUCURSAL",
    "LATITUD":18.08093,
    "LONGITUD":-96.122
  },
  {
    "IDUNIDAD":"1312",
    "NOMBREL":"VERACRUZ 22",
    "MUNICIPIOL":"VERACRUZ",
    "ESTADO":"VERACRUZ",
    "TIENDA":"SUCURSAL",
    "LATITUD":19.19133,
    "LONGITUD":-96.18349
  },
  {
    "IDUNIDAD":"1315",
    "NOMBREL":"MEOQUI 2",
    "MUNICIPIOL":"MEOQUI",
    "ESTADO":"CHIHUAHUA",
    "TIENDA":"SUCURSAL",
    "LATITUD":28.39231,
    "LONGITUD":-105.62291
  },
  {
    "IDUNIDAD":"1316",
    "NOMBREL":"LEON 16",
    "MUNICIPIOL":"LEON",
    "ESTADO":"GUANAJUATO",
    "TIENDA":"SUCURSAL",
    "LATITUD":21.14538,
    "LONGITUD":-101.6725
  },
  {
    "IDUNIDAD":"1317",
    "NOMBREL":"GUADALAJARA 54",
    "MUNICIPIOL":"TLAQUEPAQUE",
    "ESTADO":"JALISCO",
    "TIENDA":"SUCURSAL",
    "LATITUD":20.62135,
    "LONGITUD":-103.32081
  },
  {
    "IDUNIDAD":"1318",
    "NOMBREL":"OCOTLAN 3",
    "MUNICIPIOL":"OCOTLAN",
    "ESTADO":"JALISCO",
    "TIENDA":"SUCURSAL",
    "LATITUD":20.35141,
    "LONGITUD":-102.76339
  },
  {
    "IDUNIDAD":"1319",
    "NOMBREL":"CUAUTLA 2",
    "MUNICIPIOL":"CUAUTLA",
    "ESTADO":"MORELOS",
    "TIENDA":"SUCURSAL",
    "LATITUD":18.81075,
    "LONGITUD":-98.95166
  },
  {
    "IDUNIDAD":"1320",
    "NOMBREL":"CULIACAN 18",
    "MUNICIPIOL":"CULIACAN",
    "ESTADO":"SINALOA",
    "TIENDA":"SUCURSAL",
    "LATITUD":24.59059,
    "LONGITUD":-107.38958
  },
  {
    "IDUNIDAD":"1321",
    "NOMBREL":"CULIACAN 19",
    "MUNICIPIOL":"CULIACAN",
    "ESTADO":"SINALOA",
    "TIENDA":"SUCURSAL",
    "LATITUD":24.8146,
    "LONGITUD":-107.36795
  },
  {
    "IDUNIDAD":"1323",
    "NOMBREL":"HUIXTLA 3",
    "MUNICIPIOL":"HUIXTLA",
    "ESTADO":"CHIAPAS",
    "TIENDA":"SUCURSAL",
    "LATITUD":15.1431,
    "LONGITUD":-92.4633
  },
  {
    "IDUNIDAD":"1324",
    "NOMBREL":"CANCUN 16",
    "MUNICIPIOL":"BENITO JUAREZ",
    "ESTADO":"QUINTANA ROO",
    "TIENDA":"SUCURSAL",
    "LATITUD":21.15742,
    "LONGITUD":-86.89684
  },
  {
    "IDUNIDAD":"1325",
    "NOMBREL":"GUADALAJARA 55",
    "MUNICIPIOL":"ZAPOPAN",
    "ESTADO":"JALISCO",
    "TIENDA":"SUCURSAL",
    "LATITUD":20.67609,
    "LONGITUD":-103.44908
  },
  {
    "IDUNIDAD":"1326",
    "NOMBREL":"GUADALAJARA 56",
    "MUNICIPIOL":"ZAPOPAN",
    "ESTADO":"JALISCO",
    "TIENDA":"SUCURSAL",
    "LATITUD":20.74447,
    "LONGITUD":-103.42272
  },
  {
    "IDUNIDAD":"1327",
    "NOMBREL":"MONTERREY 55",
    "MUNICIPIOL":"SAN NICOLAS DE LOS GARZA",
    "ESTADO":"NUEVO LEON",
    "TIENDA":"SUCURSAL",
    "LATITUD":25.72213,
    "LONGITUD":-100.20367
  },
  {
    "IDUNIDAD":"1328",
    "NOMBREL":"JEREZ 2",
    "MUNICIPIOL":"JEREZ",
    "ESTADO":"ZACATECAS",
    "TIENDA":"SUCURSAL",
    "LATITUD":22.65032,
    "LONGITUD":-102.98836
  },
  {
    "IDUNIDAD":"1329",
    "NOMBREL":"JEREZ 3",
    "MUNICIPIOL":"JEREZ",
    "ESTADO":"ZACATECAS",
    "TIENDA":"SUCURSAL",
    "LATITUD":22.64885,
    "LONGITUD":-102.9878
  },
  {
    "IDUNIDAD":"1330",
    "NOMBREL":"CD. MADERO 9",
    "MUNICIPIOL":"CIUDAD MADERO",
    "ESTADO":"TAMAULIPAS",
    "TIENDA":"SUCURSAL",
    "LATITUD":22.24718,
    "LONGITUD":-97.84512
  },
  {
    "IDUNIDAD":"1331",
    "NOMBREL":"GUADALAJARA 57",
    "MUNICIPIOL":"TLAQUEPAQUE",
    "ESTADO":"JALISCO",
    "TIENDA":"SUCURSAL",
    "LATITUD":20.60002,
    "LONGITUD":-103.28407
  },
  {
    "IDUNIDAD":"1332",
    "NOMBREL":"GUADALAJARA 58",
    "MUNICIPIOL":"TLAQUEPAQUE",
    "ESTADO":"JALISCO",
    "TIENDA":"SUCURSAL",
    "LATITUD":20.62768,
    "LONGITUD":-103.32068
  },
  {
    "IDUNIDAD":"1333",
    "NOMBREL":"NUEVO PROGRESO 2",
    "MUNICIPIOL":"RIO BRAVO",
    "ESTADO":"TAMAULIPAS",
    "TIENDA":"SUCURSAL",
    "LATITUD":26.05616,
    "LONGITUD":-97.9511
  },
  {
    "IDUNIDAD":"1334",
    "NOMBREL":"SOLEDAD DE GRACIANO SANCHEZ 4",
    "MUNICIPIOL":"SOLEDAD DE GRACIANO SANCHEZ",
    "ESTADO":"SAN LUIS POTOSI",
    "TIENDA":"SUCURSAL",
    "LATITUD":22.17064,
    "LONGITUD":-100.92278
  },
  {
    "IDUNIDAD":"1335",
    "NOMBREL":"OCOZOCOAUTLA 2",
    "MUNICIPIOL":"OCOZOCOAUTLA DE ESPINOSA",
    "ESTADO":"CHIAPAS",
    "TIENDA":"SUCURSAL",
    "LATITUD":16.7619,
    "LONGITUD":-93.37598
  },
  {
    "IDUNIDAD":"1336",
    "NOMBREL":"MEXICALI 31",
    "MUNICIPIOL":"MEXICALI",
    "ESTADO":"BAJA CALIFORNIA",
    "TIENDA":"SUCURSAL",
    "LATITUD":32.6499,
    "LONGITUD":-115.50599
  },
  {
    "IDUNIDAD":"1337",
    "NOMBREL":"MEXICALI 32",
    "MUNICIPIOL":"MEXICALI",
    "ESTADO":"BAJA CALIFORNIA",
    "TIENDA":"SUCURSAL",
    "LATITUD":32.62311,
    "LONGITUD":-115.38736
  },
  {
    "IDUNIDAD":"1338",
    "NOMBREL":"PALENQUE 4",
    "MUNICIPIOL":"PALENQUE",
    "ESTADO":"CHIAPAS",
    "TIENDA":"SUCURSAL",
    "LATITUD":17.51172,
    "LONGITUD":-91.9868
  },
  {
    "IDUNIDAD":"1339",
    "NOMBREL":"GUASAVE 1",
    "MUNICIPIOL":"GUASAVE",
    "ESTADO":"SINALOA",
    "TIENDA":"SUCURSAL",
    "LATITUD":25.66089,
    "LONGITUD":-108.62141
  },
  {
    "IDUNIDAD":"134",
    "NOMBREL":"CHETUMAL 3",
    "MUNICIPIOL":"OTHON P BLANCO",
    "ESTADO":"QUINTANA ROO",
    "TIENDA":"SUCURSAL",
    "LATITUD":18.50485,
    "LONGITUD":-88.29601
  },
  {
    "IDUNIDAD":"1340",
    "NOMBREL":"TIJUANA 29",
    "MUNICIPIOL":"TIJUANA",
    "ESTADO":"BAJA CALIFORNIA",
    "TIENDA":"SUCURSAL",
    "LATITUD":32.4551,
    "LONGITUD":-116.92031
  },
  {
    "IDUNIDAD":"1341",
    "NOMBREL":"OLUTA 1",
    "MUNICIPIOL":"OLUTA",
    "ESTADO":"VERACRUZ",
    "TIENDA":"SUCURSAL",
    "LATITUD":17.92871,
    "LONGITUD":-94.89689
  },
  {
    "IDUNIDAD":"1342",
    "NOMBREL":"SAN LUIS POTOSI 28",
    "MUNICIPIOL":"SAN LUIS POTOSI",
    "ESTADO":"SAN LUIS POTOSI",
    "TIENDA":"SUCURSAL",
    "LATITUD":22.14306,
    "LONGITUD":-101.03397
  },
  {
    "IDUNIDAD":"1343",
    "NOMBREL":"SAN LUIS POTOSI 29",
    "MUNICIPIOL":"SAN LUIS POTOSI",
    "ESTADO":"SAN LUIS POTOSI",
    "TIENDA":"SUCURSAL",
    "LATITUD":22.12252,
    "LONGITUD":-100.94662
  },
  {
    "IDUNIDAD":"1344",
    "NOMBREL":"CINTALAPA 3",
    "MUNICIPIOL":"CINTALAPA",
    "ESTADO":"CHIAPAS",
    "TIENDA":"SUCURSAL",
    "LATITUD":16.68913,
    "LONGITUD":-93.72107
  },
  {
    "IDUNIDAD":"1345",
    "NOMBREL":"CULIACAN 20",
    "MUNICIPIOL":"CULIACAN",
    "ESTADO":"SINALOA",
    "TIENDA":"SUCURSAL",
    "LATITUD":24.85143,
    "LONGITUD":-107.39393
  },
  {
    "IDUNIDAD":"1346",
    "NOMBREL":"HIDALGO 2, NUEVO LEON",
    "MUNICIPIOL":"HIDALGO",
    "ESTADO":"NUEVO LEON",
    "TIENDA":"SUCURSAL",
    "LATITUD":25.97545,
    "LONGITUD":-100.44702
  },
  {
    "IDUNIDAD":"1347",
    "NOMBREL":"MONTERREY 56",
    "MUNICIPIOL":"APODACA",
    "ESTADO":"NUEVO LEON",
    "TIENDA":"SUCURSAL",
    "LATITUD":25.71971,
    "LONGITUD":-100.18173
  },
  {
    "IDUNIDAD":"1348",
    "NOMBREL":"CULIACAN 21",
    "MUNICIPIOL":"CULIACAN",
    "ESTADO":"SINALOA",
    "TIENDA":"SUCURSAL",
    "LATITUD":24.81095,
    "LONGITUD":-107.44012
  },
  {
    "IDUNIDAD":"1349",
    "NOMBREL":"CANANEA 2",
    "MUNICIPIOL":"CANANEA",
    "ESTADO":"SONORA",
    "TIENDA":"SUCURSAL",
    "LATITUD":30.98792,
    "LONGITUD":-110.2862
  },
  {
    "IDUNIDAD":"135",
    "NOMBREL":"COATZACOALCOS 1",
    "MUNICIPIOL":"COATZACOALCOS",
    "ESTADO":"VERACRUZ",
    "TIENDA":"SUCURSAL",
    "LATITUD":18.14484,
    "LONGITUD":-94.41766
  },
  {
    "IDUNIDAD":"1350",
    "NOMBREL":"TEPIC 7",
    "MUNICIPIOL":"TEPIC",
    "ESTADO":"NAYARIT",
    "TIENDA":"SUCURSAL",
    "LATITUD":21.50882,
    "LONGITUD":-104.89336
  },
  {
    "IDUNIDAD":"1352",
    "NOMBREL":"HERMOSILLO 12",
    "MUNICIPIOL":"HERMOSILLO",
    "ESTADO":"SONORA",
    "TIENDA":"SUCURSAL",
    "LATITUD":29.11722,
    "LONGITUD":-110.99224
  },
  {
    "IDUNIDAD":"1353",
    "NOMBREL":"CULIACAN 22",
    "MUNICIPIOL":"CULIACAN",
    "ESTADO":"SINALOA",
    "TIENDA":"SUCURSAL",
    "LATITUD":24.7623,
    "LONGITUD":-107.4234
  },
  {
    "IDUNIDAD":"1356",
    "NOMBREL":"MIGUEL ALEMAN 2, SON.",
    "MUNICIPIOL":"HERMOSILLO",
    "ESTADO":"SONORA",
    "TIENDA":"SUCURSAL",
    "LATITUD":28.84004,
    "LONGITUD":-111.48913
  },
  {
    "IDUNIDAD":"1357",
    "NOMBREL":"HERMOSILLO 13",
    "MUNICIPIOL":"HERMOSILLO",
    "ESTADO":"SONORA",
    "TIENDA":"SUCURSAL",
    "LATITUD":29.11898,
    "LONGITUD":-111.0244
  },
  {
    "IDUNIDAD":"1358",
    "NOMBREL":"TAMUIN 1, S.L.P.",
    "MUNICIPIOL":"TAMUIN",
    "ESTADO":"SAN LUIS POTOSI",
    "TIENDA":"SUCURSAL",
    "LATITUD":22.00317,
    "LONGITUD":-98.77679
  },
  {
    "IDUNIDAD":"1359",
    "NOMBREL":"HERMOSILLO 14",
    "MUNICIPIOL":"HERMOSILLO",
    "ESTADO":"SONORA",
    "TIENDA":"SUCURSAL",
    "LATITUD":29.01654,
    "LONGITUD":-110.94327
  },
  {
    "IDUNIDAD":"136",
    "NOMBREL":"CD. OBREGON 2",
    "MUNICIPIOL":"CAJEME",
    "ESTADO":"SONORA",
    "TIENDA":"SUCURSAL",
    "LATITUD":27.48266,
    "LONGITUD":-109.94611
  },
  {
    "IDUNIDAD":"1360",
    "NOMBREL":"HERMOSILLO 15",
    "MUNICIPIOL":"HERMOSILLO",
    "ESTADO":"SONORA",
    "TIENDA":"SUCURSAL",
    "LATITUD":29.10889,
    "LONGITUD":-110.95203
  },
  {
    "IDUNIDAD":"1361",
    "NOMBREL":"CHIHUAHUA 14",
    "MUNICIPIOL":"CHIHUAHUA",
    "ESTADO":"CHIHUAHUA",
    "TIENDA":"SUCURSAL",
    "LATITUD":28.71201,
    "LONGITUD":-106.09374
  },
  {
    "IDUNIDAD":"1363",
    "NOMBREL":"ECATEPEC 10",
    "MUNICIPIOL":"ECATEPEC DE MORELOS",
    "ESTADO":"ESTADO DE MEXICO",
    "TIENDA":"SUCURSAL",
    "LATITUD":19.5297,
    "LONGITUD":-99.04281
  },
  {
    "IDUNIDAD":"1364",
    "NOMBREL":"MONTERREY 57",
    "MUNICIPIOL":"MONTERREY",
    "ESTADO":"NUEVO LEON",
    "TIENDA":"SUCURSAL",
    "LATITUD":25.77601,
    "LONGITUD":-100.40057
  },
  {
    "IDUNIDAD":"1365",
    "NOMBREL":"MEXICALI 35",
    "MUNICIPIOL":"MEXICALI",
    "ESTADO":"BAJA CALIFORNIA",
    "TIENDA":"SUCURSAL",
    "LATITUD":32.63046,
    "LONGITUD":-115.50566
  },
  {
    "IDUNIDAD":"1366",
    "NOMBREL":"CORDOBA 7",
    "MUNICIPIOL":"CORDOBA",
    "ESTADO":"VERACRUZ",
    "TIENDA":"SUCURSAL",
    "LATITUD":18.88819,
    "LONGITUD":-96.93453
  },
  {
    "IDUNIDAD":"1367",
    "NOMBREL":"LEON 17",
    "MUNICIPIOL":"LEON",
    "ESTADO":"GUANAJUATO",
    "TIENDA":"SUCURSAL",
    "LATITUD":21.10359,
    "LONGITUD":-101.63988
  },
  {
    "IDUNIDAD":"1368",
    "NOMBREL":"MISANTLA 3",
    "MUNICIPIOL":"MISANTLA",
    "ESTADO":"VERACRUZ",
    "TIENDA":"SUCURSAL",
    "LATITUD":19.93271,
    "LONGITUD":-96.85043
  },
  {
    "IDUNIDAD":"1369",
    "NOMBREL":"JALAPA 6",
    "MUNICIPIOL":"XALAPA",
    "ESTADO":"VERACRUZ",
    "TIENDA":"SUCURSAL",
    "LATITUD":19.56598,
    "LONGITUD":-96.90127
  },
  {
    "IDUNIDAD":"137",
    "NOMBREL":"NEZAHUALCOYOTL 3",
    "MUNICIPIOL":"NEZAHUALCOYOTL",
    "ESTADO":"ESTADO DE MEXICO",
    "TIENDA":"SUCURSAL",
    "LATITUD":19.41244,
    "LONGITUD":-99.00838
  },
  {
    "IDUNIDAD":"1370",
    "NOMBREL":"CUITLAHUAC 2, VER.",
    "MUNICIPIOL":"CUITLAHUAC",
    "ESTADO":"VERACRUZ",
    "TIENDA":"SUCURSAL",
    "LATITUD":18.81319,
    "LONGITUD":-96.72286
  },
  {
    "IDUNIDAD":"1371",
    "NOMBREL":"LEON 18",
    "MUNICIPIOL":"LEON",
    "ESTADO":"GUANAJUATO",
    "TIENDA":"SUCURSAL",
    "LATITUD":21.10109,
    "LONGITUD":-101.64812
  },
  {
    "IDUNIDAD":"1372",
    "NOMBREL":"MINERAL DE LA REFORMA 1, HGO.",
    "MUNICIPIOL":"MINERAL DE LA REFORMA",
    "ESTADO":"HIDALGO",
    "TIENDA":"SUCURSAL",
    "LATITUD":20.09707,
    "LONGITUD":-98.7043
  },
  {
    "IDUNIDAD":"1373",
    "NOMBREL":"SAN LUIS POTOSI 30",
    "MUNICIPIOL":"SAN LUIS POTOSI",
    "ESTADO":"SAN LUIS POTOSI",
    "TIENDA":"SUCURSAL",
    "LATITUD":22.14501,
    "LONGITUD":-100.99008
  },
  {
    "IDUNIDAD":"1374",
    "NOMBREL":"IRAPUATO 13",
    "MUNICIPIOL":"IRAPUATO",
    "ESTADO":"GUANAJUATO",
    "TIENDA":"SUCURSAL",
    "LATITUD":20.65373,
    "LONGITUD":-101.35976
  },
  {
    "IDUNIDAD":"1375",
    "NOMBREL":"LEON 19",
    "MUNICIPIOL":"LEON",
    "ESTADO":"GUANAJUATO",
    "TIENDA":"SUCURSAL",
    "LATITUD":21.13255,
    "LONGITUD":-101.69243
  },
  {
    "IDUNIDAD":"1376",
    "NOMBREL":"IRAPUATO 14",
    "MUNICIPIOL":"IRAPUATO",
    "ESTADO":"GUANAJUATO",
    "TIENDA":"SUCURSAL",
    "LATITUD":20.64436,
    "LONGITUD":-101.3378
  },
  {
    "IDUNIDAD":"1377",
    "NOMBREL":"HUATUSCO 2",
    "MUNICIPIOL":"HUATUSCO",
    "ESTADO":"VERACRUZ",
    "TIENDA":"SUCURSAL",
    "LATITUD":19.1502,
    "LONGITUD":-96.96268
  },
  {
    "IDUNIDAD":"1378",
    "NOMBREL":"LA PAZ 6",
    "MUNICIPIOL":"LA PAZ",
    "ESTADO":"BAJA CALIFORNIA SUR",
    "TIENDA":"SUCURSAL",
    "LATITUD":24.06698,
    "LONGITUD":-110.3057
  },
  {
    "IDUNIDAD":"1379",
    "NOMBREL":"SAN CRISTOBAL DE LAS CASAS 6",
    "MUNICIPIOL":"SAN CRISTOBAL DE LAS CASAS",
    "ESTADO":"CHIAPAS",
    "TIENDA":"SUCURSAL",
    "LATITUD":16.73059,
    "LONGITUD":-92.6371
  },
  {
    "IDUNIDAD":"138",
    "NOMBREL":"NEZAHUALCOYOTL 4",
    "MUNICIPIOL":"NEZAHUALCOYOTL",
    "ESTADO":"ESTADO DE MEXICO",
    "TIENDA":"SUCURSAL",
    "LATITUD":19.400767,
    "LONGITUD":-99.003835
  },
  {
    "IDUNIDAD":"1380",
    "NOMBREL":"EJIDO PUEBLA 2, BC.",
    "MUNICIPIOL":"MEXICALI",
    "ESTADO":"BAJA CALIFORNIA",
    "TIENDA":"SUCURSAL",
    "LATITUD":32.56805,
    "LONGITUD":-115.35294
  },
  {
    "IDUNIDAD":"1381",
    "NOMBREL":"COATZACOALCOS 3",
    "MUNICIPIOL":"COATZACOALCOS",
    "ESTADO":"VERACRUZ",
    "TIENDA":"SUCURSAL",
    "LATITUD":18.14737,
    "LONGITUD":-94.41588
  },
  {
    "IDUNIDAD":"1382",
    "NOMBREL":"ENSENADA 3",
    "MUNICIPIOL":"ENSENADA",
    "ESTADO":"BAJA CALIFORNIA",
    "TIENDA":"SUCURSAL",
    "LATITUD":31.79032,
    "LONGITUD":-116.58655
  },
  {
    "IDUNIDAD":"1383",
    "NOMBREL":"MERIDA 14",
    "MUNICIPIOL":"MERIDA",
    "ESTADO":"YUCATAN",
    "TIENDA":"SUCURSAL",
    "LATITUD":20.95575,
    "LONGITUD":-89.60236
  },
  {
    "IDUNIDAD":"1384",
    "NOMBREL":"VILLAHERMOSA 17",
    "MUNICIPIOL":"CENTRO",
    "ESTADO":"TABASCO",
    "TIENDA":"SUCURSAL",
    "LATITUD":17.99674,
    "LONGITUD":-92.9134
  },
  {
    "IDUNIDAD":"1385",
    "NOMBREL":"DR. BALMIS",
    "MUNICIPIOL":"CUAUHTEMOC",
    "ESTADO":"DISTRITO FEDERAL",
    "TIENDA":"SUCURSAL",
    "LATITUD":19.414244,
    "LONGITUD":-99.144349
  },
  {
    "IDUNIDAD":"1386",
    "NOMBREL":"LA PAZ 7",
    "MUNICIPIOL":"LA PAZ",
    "ESTADO":"BAJA CALIFORNIA SUR",
    "TIENDA":"SUCURSAL",
    "LATITUD":24.13993,
    "LONGITUD":-110.29604
  },
  {
    "IDUNIDAD":"1387",
    "NOMBREL":"CORDOBA 8",
    "MUNICIPIOL":"CORDOBA",
    "ESTADO":"VERACRUZ",
    "TIENDA":"SUCURSAL",
    "LATITUD":18.89366,
    "LONGITUD":-96.92962
  },
  {
    "IDUNIDAD":"1388",
    "NOMBREL":"MERIDA 15",
    "MUNICIPIOL":"MERIDA",
    "ESTADO":"YUCATAN",
    "TIENDA":"SUCURSAL",
    "LATITUD":20.9497,
    "LONGITUD":-89.63662
  },
  {
    "IDUNIDAD":"1389",
    "NOMBREL":"AV. MEXICO 1",
    "MUNICIPIOL":"LA MAGDALENA CONTRERAS",
    "ESTADO":"DISTRITO FEDERAL",
    "TIENDA":"SUCURSAL",
    "LATITUD":19.31103,
    "LONGITUD":-99.2254
  },
  {
    "IDUNIDAD":"139",
    "NOMBREL":"CHIHUAHUA 1",
    "MUNICIPIOL":"CHIHUAHUA",
    "ESTADO":"CHIHUAHUA",
    "TIENDA":"SUCURSAL",
    "LATITUD":28.6379,
    "LONGITUD":-106.08109
  },
  {
    "IDUNIDAD":"1391",
    "NOMBREL":"VERTIZ 2",
    "MUNICIPIOL":"BENITO JUAREZ",
    "ESTADO":"DISTRITO FEDERAL",
    "TIENDA":"SUCURSAL",
    "LATITUD":19.38013,
    "LONGITUD":-99.15327
  },
  {
    "IDUNIDAD":"1392",
    "NOMBREL":"SALTILLO 10",
    "MUNICIPIOL":"SALTILLO",
    "ESTADO":"COAHUILA",
    "TIENDA":"SUCURSAL",
    "LATITUD":25.401,
    "LONGITUD":-101.0005
  },
  {
    "IDUNIDAD":"1393",
    "NOMBREL":"LA PAZ 8",
    "MUNICIPIOL":"LA PAZ",
    "ESTADO":"BAJA CALIFORNIA SUR",
    "TIENDA":"SUCURSAL",
    "LATITUD":24.13036,
    "LONGITUD":-110.32426
  },
  {
    "IDUNIDAD":"1395",
    "NOMBREL":"ESCUINAPA 2",
    "MUNICIPIOL":"ESCUINAPA",
    "ESTADO":"SINALOA",
    "TIENDA":"SUCURSAL",
    "LATITUD":22.83456,
    "LONGITUD":-105.77964
  },
  {
    "IDUNIDAD":"1396",
    "NOMBREL":"MATLAPA 1",
    "MUNICIPIOL":"MATLAPA",
    "ESTADO":"SAN LUIS POTOSI",
    "TIENDA":"SUCURSAL",
    "LATITUD":21.33879,
    "LONGITUD":-98.82873
  },
  {
    "IDUNIDAD":"1397",
    "NOMBREL":"CENTRO 10",
    "MUNICIPIOL":"CUAUHTEMOC",
    "ESTADO":"DISTRITO FEDERAL",
    "TIENDA":"SUCURSAL",
    "LATITUD":19.4231,
    "LONGITUD":-99.1356
  },
  {
    "IDUNIDAD":"1398",
    "NOMBREL":"CORREGIDORA 2",
    "MUNICIPIOL":"CORREGIDORA",
    "ESTADO":"QUERETARO",
    "TIENDA":"SUCURSAL",
    "LATITUD":20.557822,
    "LONGITUD":-100.435832
  },
  {
    "IDUNIDAD":"1399",
    "NOMBREL":"QUERETARO 5",
    "MUNICIPIOL":"QUERETARO",
    "ESTADO":"QUERETARO",
    "TIENDA":"SUCURSAL",
    "LATITUD":20.59007,
    "LONGITUD":-100.3975
  },
  {
    "IDUNIDAD":"14",
    "NOMBREL":"METRO INSURGENTES",
    "MUNICIPIOL":"CUAUHTEMOC",
    "ESTADO":"DISTRITO FEDERAL",
    "TIENDA":"SUCURSAL",
    "LATITUD":19.42321,
    "LONGITUD":-99.16284
  },
  {
    "IDUNIDAD":"140",
    "NOMBREL":"CHIHUAHUA 2",
    "MUNICIPIOL":"CHIHUAHUA",
    "ESTADO":"CHIHUAHUA",
    "TIENDA":"SUCURSAL",
    "LATITUD":28.63502,
    "LONGITUD":-106.07779
  },
  {
    "IDUNIDAD":"1400",
    "NOMBREL":"CUAUTLA 3",
    "MUNICIPIOL":"CUAUTLA",
    "ESTADO":"MORELOS",
    "TIENDA":"SUCURSAL",
    "LATITUD":18.814544,
    "LONGITUD":-98.954218
  },
  {
    "IDUNIDAD":"1401",
    "NOMBREL":"TIJUANA 30",
    "MUNICIPIOL":"TIJUANA",
    "ESTADO":"BAJA CALIFORNIA",
    "TIENDA":"SUCURSAL",
    "LATITUD":32.48456,
    "LONGITUD":-116.92252
  },
  {
    "IDUNIDAD":"1402",
    "NOMBREL":"LORETO 3",
    "MUNICIPIOL":"LORETO",
    "ESTADO":"ZACATECAS",
    "TIENDA":"SUCURSAL",
    "LATITUD":22.271467,
    "LONGITUD":-101.987677
  },
  {
    "IDUNIDAD":"1403",
    "NOMBREL":"GUADALAJARA 60",
    "MUNICIPIOL":"TONALA",
    "ESTADO":"JALISCO",
    "TIENDA":"SUCURSAL",
    "LATITUD":20.66856,
    "LONGITUD":-103.23414
  },
  {
    "IDUNIDAD":"1404",
    "NOMBREL":"AGUASCALIENTES 15",
    "MUNICIPIOL":"AGUASCALIENTES",
    "ESTADO":"AGUASCALIENTES",
    "TIENDA":"SUCURSAL",
    "LATITUD":21.859163,
    "LONGITUD":-102.245478
  },
  {
    "IDUNIDAD":"1405",
    "NOMBREL":"TIJUANA 31",
    "MUNICIPIOL":"TIJUANA",
    "ESTADO":"BAJA CALIFORNIA",
    "TIENDA":"SUCURSAL",
    "LATITUD":32.52349,
    "LONGITUD":-117.03456
  },
  {
    "IDUNIDAD":"1406",
    "NOMBREL":"GUADALAJARA 61",
    "MUNICIPIOL":"GUADALAJARA",
    "ESTADO":"JALISCO",
    "TIENDA":"SUCURSAL",
    "LATITUD":20.650342,
    "LONGITUD":-103.335735
  },
  {
    "IDUNIDAD":"1407",
    "NOMBREL":"SAN LUIS POTOSI 31",
    "MUNICIPIOL":"SAN LUIS POTOSI",
    "ESTADO":"SAN LUIS POTOSI",
    "TIENDA":"SUCURSAL",
    "LATITUD":22.132471,
    "LONGITUD":-100.96495
  },
  {
    "IDUNIDAD":"1408",
    "NOMBREL":"BOCA DEL RIO 6",
    "MUNICIPIOL":"BOCA DEL RIO",
    "ESTADO":"VERACRUZ",
    "TIENDA":"SUCURSAL",
    "LATITUD":19.1325,
    "LONGITUD":-96.11369
  },
  {
    "IDUNIDAD":"1409",
    "NOMBREL":"VILLAHERMOSA 18",
    "MUNICIPIOL":"VILLAHERMOSA",
    "ESTADO":"TABASCO",
    "TIENDA":"SUCURSAL",
    "LATITUD":17.994989,
    "LONGITUD":-92.91613
  },
  {
    "IDUNIDAD":"141",
    "NOMBREL":"MEDELLIN",
    "MUNICIPIOL":"MEDELLIN",
    "ESTADO":"VERACRUZ",
    "TIENDA":"SUCURSAL",
    "LATITUD":19.07769,
    "LONGITUD":-96.15953
  },
  {
    "IDUNIDAD":"1410",
    "NOMBREL":"OJINAGA 3",
    "MUNICIPIOL":"OJINAGA",
    "ESTADO":"CHIHUAHUA",
    "TIENDA":"SUCURSAL",
    "LATITUD":29.55857,
    "LONGITUD":-104.41149
  },
  {
    "IDUNIDAD":"1411",
    "NOMBREL":"CUERNAVACA 17",
    "MUNICIPIOL":"CUERNAVACA",
    "ESTADO":"MORELOS",
    "TIENDA":"SUCURSAL",
    "LATITUD":18.9518,
    "LONGITUD":-99.19953
  },
  {
    "IDUNIDAD":"1412",
    "NOMBREL":"ALTAMIRA 4",
    "MUNICIPIOL":"ALTAMIRA",
    "ESTADO":"TAMAULIPAS",
    "TIENDA":"SUCURSAL",
    "LATITUD":22.3906,
    "LONGITUD":-97.94636
  },
  {
    "IDUNIDAD":"1413",
    "NOMBREL":"CD. OBREGON 9",
    "MUNICIPIOL":"CAJEME",
    "ESTADO":"SONORA",
    "TIENDA":"SUCURSAL",
    "LATITUD":27.482886,
    "LONGITUD":-109.937105
  },
  {
    "IDUNIDAD":"1414",
    "NOMBREL":"MONTERREY 59",
    "MUNICIPIOL":"SAN NICOLAS DE LOS GARZA",
    "ESTADO":"NUEVO LEON",
    "TIENDA":"SUCURSAL",
    "LATITUD":25.73214,
    "LONGITUD":-100.23386
  },
  {
    "IDUNIDAD":"1415",
    "NOMBREL":"MONTERREY 60",
    "MUNICIPIOL":"SAN NICOLAS DE LOS GARZA",
    "ESTADO":"NUEVO LEON",
    "TIENDA":"SUCURSAL",
    "LATITUD":25.741094,
    "LONGITUD":-100.270514
  },
  {
    "IDUNIDAD":"1416",
    "NOMBREL":"TIJUANA 32",
    "MUNICIPIOL":"TIJUANA",
    "ESTADO":"BAJA CALIFORNIA",
    "TIENDA":"SUCURSAL",
    "LATITUD":32.49953,
    "LONGITUD":-116.90051
  },
  {
    "IDUNIDAD":"1417",
    "NOMBREL":"MONTE ESCOBEDO 1",
    "MUNICIPIOL":"MONTE ESCOBEDO",
    "ESTADO":"ZACATECAS",
    "TIENDA":"SUCURSAL",
    "LATITUD":22.3025,
    "LONGITUD":-103.5618
  },
  {
    "IDUNIDAD":"1418",
    "NOMBREL":"IZTACALCO 3",
    "MUNICIPIOL":"IZTACALCO",
    "ESTADO":"DISTRITO FEDERAL",
    "TIENDA":"SUCURSAL",
    "LATITUD":19.38365,
    "LONGITUD":-99.10683
  },
  {
    "IDUNIDAD":"1419",
    "NOMBREL":"IZTACALCO 4",
    "MUNICIPIOL":"IZTACALCO",
    "ESTADO":"DISTRITO FEDERAL",
    "TIENDA":"SUCURSAL",
    "LATITUD":19.38868,
    "LONGITUD":-99.11578
  },
  {
    "IDUNIDAD":"142",
    "NOMBREL":"GUADALAJARA 13",
    "MUNICIPIOL":"GUADALAJARA",
    "ESTADO":"JALISCO",
    "TIENDA":"SUCURSAL",
    "LATITUD":20.67448,
    "LONGITUD":-103.3139
  },
  {
    "IDUNIDAD":"1420",
    "NOMBREL":"XICOTEPEC 2",
    "MUNICIPIOL":"XICOTEPEC",
    "ESTADO":"PUEBLA",
    "TIENDA":"SUCURSAL",
    "LATITUD":20.27684,
    "LONGITUD":-97.95769
  },
  {
    "IDUNIDAD":"1421",
    "NOMBREL":"SAN LUIS POTOSI 32",
    "MUNICIPIOL":"SAN LUIS POTOSI",
    "ESTADO":"SAN LUIS POTOSI",
    "TIENDA":"SUCURSAL",
    "LATITUD":22.183,
    "LONGITUD":-100.973
  },
  {
    "IDUNIDAD":"1422",
    "NOMBREL":"IZTACALCO 5",
    "MUNICIPIOL":"IZTACALCO",
    "ESTADO":"DISTRITO FEDERAL",
    "TIENDA":"SUCURSAL",
    "LATITUD":19.384595,
    "LONGITUD":-99.094305
  },
  {
    "IDUNIDAD":"1423",
    "NOMBREL":"TEZONAPA 2",
    "MUNICIPIOL":"TEZONAPA",
    "ESTADO":"VERACRUZ",
    "TIENDA":"SUCURSAL",
    "LATITUD":18.60279,
    "LONGITUD":-96.6878
  },
  {
    "IDUNIDAD":"1424",
    "NOMBREL":"INSURGENTES 3",
    "MUNICIPIOL":"CUAUHTEMOC",
    "ESTADO":"DISTRITO FEDERAL",
    "TIENDA":"SUCURSAL",
    "LATITUD":19.4076,
    "LONGITUD":-99.16776
  },
  {
    "IDUNIDAD":"1425",
    "NOMBREL":"VERACRUZ 23",
    "MUNICIPIOL":"VERACRUZ",
    "ESTADO":"VERACRUZ",
    "TIENDA":"SUCURSAL",
    "LATITUD":19.20997,
    "LONGITUD":-96.19552
  },
  {
    "IDUNIDAD":"1426",
    "NOMBREL":"VILLAHERMOSA 19",
    "MUNICIPIOL":"CENTRO",
    "ESTADO":"TABASCO",
    "TIENDA":"SUCURSAL",
    "LATITUD":17.9898,
    "LONGITUD":-92.92595
  },
  {
    "IDUNIDAD":"1427",
    "NOMBREL":"ORIZABA 6",
    "MUNICIPIOL":"ORIZABA",
    "ESTADO":"VERACRUZ",
    "TIENDA":"SUCURSAL",
    "LATITUD":18.86352,
    "LONGITUD":-97.10702
  },
  {
    "IDUNIDAD":"1429",
    "NOMBREL":"APIZACO 9",
    "MUNICIPIOL":"APIZACO",
    "ESTADO":"TLAXCALA",
    "TIENDA":"SUCURSAL",
    "LATITUD":19.41373,
    "LONGITUD":-98.13534
  },
  {
    "IDUNIDAD":"143",
    "NOMBREL":"GUADALAJARA 14",
    "MUNICIPIOL":"GUADALAJARA",
    "ESTADO":"JALISCO",
    "TIENDA":"SUCURSAL",
    "LATITUD":20.64445,
    "LONGITUD":-103.34965
  },
  {
    "IDUNIDAD":"1430",
    "NOMBREL":"REYNOSA 15",
    "MUNICIPIOL":"REYNOSA",
    "ESTADO":"TAMAULIPAS",
    "TIENDA":"SUCURSAL",
    "LATITUD":26.07143,
    "LONGITUD":-98.36072
  },
  {
    "IDUNIDAD":"1431",
    "NOMBREL":"OAXACA 8",
    "MUNICIPIOL":"OAXACA DE JUAREZ",
    "ESTADO":"OAXACA",
    "TIENDA":"SUCURSAL",
    "LATITUD":17.0738,
    "LONGITUD":-96.72648
  },
  {
    "IDUNIDAD":"1432",
    "NOMBREL":"TAPACHULA 12",
    "MUNICIPIOL":"TAPACHULA",
    "ESTADO":"CHIAPAS",
    "TIENDA":"SUCURSAL",
    "LATITUD":14.8999,
    "LONGITUD":-92.2497
  },
  {
    "IDUNIDAD":"1433",
    "NOMBREL":"COMALCALCO 2",
    "MUNICIPIOL":"COMALCALCO",
    "ESTADO":"TABASCO",
    "TIENDA":"SUCURSAL",
    "LATITUD":18.25603,
    "LONGITUD":-93.22041
  },
  {
    "IDUNIDAD":"1434",
    "NOMBREL":"MONTERREY 61",
    "MUNICIPIOL":"MONTERREY",
    "ESTADO":"NUEVO LEON",
    "TIENDA":"SUCURSAL",
    "LATITUD":25.6813,
    "LONGITUD":-100.3459
  },
  {
    "IDUNIDAD":"1436",
    "NOMBREL":"ERMITA 3",
    "MUNICIPIOL":"COYOACAN",
    "ESTADO":"DISTRITO FEDERAL",
    "TIENDA":"SUCURSAL",
    "LATITUD":19.35759,
    "LONGITUD":-99.12252
  },
  {
    "IDUNIDAD":"1437",
    "NOMBREL":"COZUMEL 6",
    "MUNICIPIOL":"COZUMEL",
    "ESTADO":"QUINTANA ROO",
    "TIENDA":"SUCURSAL",
    "LATITUD":20.50856,
    "LONGITUD":-86.94805
  },
  {
    "IDUNIDAD":"1438",
    "NOMBREL":"NEZAHUALCOYOTL 18",
    "MUNICIPIOL":"NEZAHUALCOYOTL",
    "ESTADO":"ESTADO DE MEXICO",
    "TIENDA":"SUCURSAL",
    "LATITUD":19.37574,
    "LONGITUD":-99.00562
  },
  {
    "IDUNIDAD":"1439",
    "NOMBREL":"ZUMPANGO 3",
    "MUNICIPIOL":"ZUMPANGO",
    "ESTADO":"ESTADO DE MEXICO",
    "TIENDA":"SUCURSAL",
    "LATITUD":19.798053,
    "LONGITUD":-99.101843
  },
  {
    "IDUNIDAD":"144",
    "NOMBREL":"FORTIN 1",
    "MUNICIPIOL":"FORTIN",
    "ESTADO":"VERACRUZ",
    "TIENDA":"SUCURSAL",
    "LATITUD":18.898495,
    "LONGITUD":-96.998696
  },
  {
    "IDUNIDAD":"1441",
    "NOMBREL":"LEON 20",
    "MUNICIPIOL":"LEON",
    "ESTADO":"GUANAJUATO",
    "TIENDA":"SUCURSAL",
    "LATITUD":21.12451,
    "LONGITUD":-101.68612
  },
  {
    "IDUNIDAD":"1442",
    "NOMBREL":"NUEVO LAREDO 12",
    "MUNICIPIOL":"NUEVO LAREDO",
    "ESTADO":"TAMAULIPAS",
    "TIENDA":"SUCURSAL",
    "LATITUD":27.48061,
    "LONGITUD":-99.53971
  },
  {
    "IDUNIDAD":"1443",
    "NOMBREL":"SOLEDAD DE GRACIANO SANCHEZ 5",
    "MUNICIPIOL":"SOLEDAD DE GRACIANO SANCHEZ",
    "ESTADO":"SAN LUIS POTOSI",
    "TIENDA":"SUCURSAL",
    "LATITUD":22.1404,
    "LONGITUD":-100.9032
  },
  {
    "IDUNIDAD":"1444",
    "NOMBREL":"TECAMAC 2",
    "MUNICIPIOL":"TECAMAC",
    "ESTADO":"ESTADO DE MEXICO",
    "TIENDA":"SUCURSAL",
    "LATITUD":19.711387,
    "LONGITUD":-98.973536
  },
  {
    "IDUNIDAD":"1445",
    "NOMBREL":"OCOTLAN 4",
    "MUNICIPIOL":"OCOTLAN",
    "ESTADO":"JALISCO",
    "TIENDA":"SUCURSAL",
    "LATITUD":20.35045,
    "LONGITUD":-102.77381
  },
  {
    "IDUNIDAD":"1446",
    "NOMBREL":"PENSADOR MEXICANO 1",
    "MUNICIPIOL":"VENUSTIANO CARRANZA",
    "ESTADO":"DISTRITO FEDERAL",
    "TIENDA":"SUCURSAL",
    "LATITUD":19.444635,
    "LONGITUD":-99.08701
  },
  {
    "IDUNIDAD":"1447",
    "NOMBREL":"MONTERREY 62",
    "MUNICIPIOL":"SANTA CATARINA",
    "ESTADO":"NUEVO LEON",
    "TIENDA":"SUCURSAL",
    "LATITUD":25.678956,
    "LONGITUD":-100.48088
  },
  {
    "IDUNIDAD":"1448",
    "NOMBREL":"TEPIC 8",
    "MUNICIPIOL":"TEPIC",
    "ESTADO":"NAYARIT",
    "TIENDA":"SUCURSAL",
    "LATITUD":21.50587,
    "LONGITUD":-104.88871
  },
  {
    "IDUNIDAD":"1449",
    "NOMBREL":"GUADALAJARA 63",
    "MUNICIPIOL":"ZAPOPAN",
    "ESTADO":"JALISCO",
    "TIENDA":"SUCURSAL",
    "LATITUD":20.8288,
    "LONGITUD":-103.4506
  },
  {
    "IDUNIDAD":"145",
    "NOMBREL":"ENSENADA 1",
    "MUNICIPIOL":"ENSENADA",
    "ESTADO":"BAJA CALIFORNIA",
    "TIENDA":"SUCURSAL",
    "LATITUD":31.86249,
    "LONGITUD":-116.61238
  },
  {
    "IDUNIDAD":"1450",
    "NOMBREL":"COLIMA 5",
    "MUNICIPIOL":"COLIMA",
    "ESTADO":"COLIMA",
    "TIENDA":"SUCURSAL",
    "LATITUD":19.252275,
    "LONGITUD":-103.711403
  },
  {
    "IDUNIDAD":"1451",
    "NOMBREL":"AGUASCALIENTES 16",
    "MUNICIPIOL":"AGUASCALIENTES",
    "ESTADO":"AGUASCALIENTES",
    "TIENDA":"SUCURSAL",
    "LATITUD":21.879772,
    "LONGITUD":-102.304872
  },
  {
    "IDUNIDAD":"1453",
    "NOMBREL":"SAN LUIS POTOSI 33",
    "MUNICIPIOL":"SAN LUIS POTOSI",
    "ESTADO":"SAN LUIS POTOSI",
    "TIENDA":"SUCURSAL",
    "LATITUD":22.170419,
    "LONGITUD":-101.001402
  },
  {
    "IDUNIDAD":"1454",
    "NOMBREL":"TIJUANA 33",
    "MUNICIPIOL":"TIJUANA",
    "ESTADO":"BAJA CALIFORNIA",
    "TIENDA":"SUCURSAL",
    "LATITUD":32.50118,
    "LONGITUD":-116.88192
  },
  {
    "IDUNIDAD":"1456",
    "NOMBREL":"TIJUANA 34",
    "MUNICIPIOL":"TIJUANA",
    "ESTADO":"BAJA CALIFORNIA",
    "TIENDA":"SUCURSAL",
    "LATITUD":32.48247,
    "LONGITUD":-116.87225
  },
  {
    "IDUNIDAD":"1457",
    "NOMBREL":"TIJUANA 35",
    "MUNICIPIOL":"TIJUANA",
    "ESTADO":"BAJA CALIFORNIA",
    "TIENDA":"SUCURSAL",
    "LATITUD":32.42104,
    "LONGITUD":-116.96989
  },
  {
    "IDUNIDAD":"1458",
    "NOMBREL":"MEXICALI 36",
    "MUNICIPIOL":"MEXICALI",
    "ESTADO":"BAJA CALIFORNIA",
    "TIENDA":"SUCURSAL",
    "LATITUD":32.63259,
    "LONGITUD":-115.42327
  },
  {
    "IDUNIDAD":"1459",
    "NOMBREL":"MINATITLAN 8",
    "MUNICIPIOL":"MINATITLAN",
    "ESTADO":"VERACRUZ",
    "TIENDA":"SUCURSAL",
    "LATITUD":17.99208,
    "LONGITUD":-94.53201
  },
  {
    "IDUNIDAD":"146",
    "NOMBREL":"ARAGON 1",
    "MUNICIPIOL":"NEZAHUALCOYOTL",
    "ESTADO":"ESTADO DE MEXICO",
    "TIENDA":"SUCURSAL",
    "LATITUD":19.49181,
    "LONGITUD":-99.05455
  },
  {
    "IDUNIDAD":"1460",
    "NOMBREL":"LA PAZ 9",
    "MUNICIPIOL":"LA PAZ",
    "ESTADO":"BAJA CALIFORNIA SUR",
    "TIENDA":"SUCURSAL",
    "LATITUD":24.11257,
    "LONGITUD":-110.31801
  },
  {
    "IDUNIDAD":"1461",
    "NOMBREL":"CHIHUAHUA 15",
    "MUNICIPIOL":"CHIHUAHUA",
    "ESTADO":"CHIHUAHUA",
    "TIENDA":"SUCURSAL",
    "LATITUD":28.72954,
    "LONGITUD":-106.11366
  },
  {
    "IDUNIDAD":"1462",
    "NOMBREL":"TLALPAN 8",
    "MUNICIPIOL":"BENITO JUAREZ",
    "ESTADO":"DISTRITO FEDERAL",
    "TIENDA":"SUCURSAL",
    "LATITUD":19.362109,
    "LONGITUD":-99.143126
  },
  {
    "IDUNIDAD":"1463",
    "NOMBREL":"CARDENAS 5",
    "MUNICIPIOL":"CARDENAS",
    "ESTADO":"TABASCO",
    "TIENDA":"SUCURSAL",
    "LATITUD":17.98791,
    "LONGITUD":-93.37887
  },
  {
    "IDUNIDAD":"1464",
    "NOMBREL":"CORDOBA 9",
    "MUNICIPIOL":"CORDOBA",
    "ESTADO":"VERACRUZ",
    "TIENDA":"SUCURSAL",
    "LATITUD":18.894602,
    "LONGITUD":-96.933953
  },
  {
    "IDUNIDAD":"1465",
    "NOMBREL":"DURANGO 13",
    "MUNICIPIOL":"DURANGO",
    "ESTADO":"DURANGO",
    "TIENDA":"SUCURSAL",
    "LATITUD":24.03251,
    "LONGITUD":-104.63128
  },
  {
    "IDUNIDAD":"1466",
    "NOMBREL":"LA PAZ 10",
    "MUNICIPIOL":"LA PAZ",
    "ESTADO":"BAJA CALIFORNIA SUR",
    "TIENDA":"SUCURSAL",
    "LATITUD":24.139307,
    "LONGITUD":-110.306599
  },
  {
    "IDUNIDAD":"1467",
    "NOMBREL":"SALTILLO 11",
    "MUNICIPIOL":"SALTILLO",
    "ESTADO":"COAHUILA",
    "TIENDA":"SUCURSAL",
    "LATITUD":25.451208,
    "LONGITUD":-100.98719
  },
  {
    "IDUNIDAD":"1468",
    "NOMBREL":"TEPIC 9",
    "MUNICIPIOL":"TEPIC",
    "ESTADO":"NAYARIT",
    "TIENDA":"SUCURSAL",
    "LATITUD":21.5129,
    "LONGITUD":-104.89494
  },
  {
    "IDUNIDAD":"1469",
    "NOMBREL":"TUXTEPEC 5",
    "MUNICIPIOL":"SAN JUAN BAUTISTA TUXTEPEC",
    "ESTADO":"OAXACA",
    "TIENDA":"SUCURSAL",
    "LATITUD":18.081945,
    "LONGITUD":-96.123859
  },
  {
    "IDUNIDAD":"147",
    "NOMBREL":"METRO PANTITLAN",
    "MUNICIPIOL":"VENUSTIANO CARRANZA",
    "ESTADO":"DISTRITO FEDERAL",
    "TIENDA":"SUCURSAL",
    "LATITUD":19.41501,
    "LONGITUD":-99.07474
  },
  {
    "IDUNIDAD":"1470",
    "NOMBREL":"VALLE DE BRAVO 3",
    "MUNICIPIOL":"VALLE DE BRAVO",
    "ESTADO":"ESTADO DE MEXICO",
    "TIENDA":"SUCURSAL",
    "LATITUD":19.200645,
    "LONGITUD":-100.135891
  },
  {
    "IDUNIDAD":"1471",
    "NOMBREL":"OAXACA 9",
    "MUNICIPIOL":"OAXACA DE JUAREZ",
    "ESTADO":"OAXACA",
    "TIENDA":"SUCURSAL",
    "LATITUD":17.06125,
    "LONGITUD":-96.73464
  },
  {
    "IDUNIDAD":"1472",
    "NOMBREL":"NEZAHUALCOYOTL 19",
    "MUNICIPIOL":"NEZAHUALCOYOTL",
    "ESTADO":"ESTADO DE MEXICO",
    "TIENDA":"SUCURSAL",
    "LATITUD":19.40767,
    "LONGITUD":-99.019255
  },
  {
    "IDUNIDAD":"1473",
    "NOMBREL":"TAMUIN 2, S.L.P.",
    "MUNICIPIOL":"TAMUIN",
    "ESTADO":"SAN LUIS POTOSI",
    "TIENDA":"SUCURSAL",
    "LATITUD":22.003577,
    "LONGITUD":-98.775248
  },
  {
    "IDUNIDAD":"1474",
    "NOMBREL":"CUERNAVACA 18",
    "MUNICIPIOL":"CUERNAVACA",
    "ESTADO":"MORELOS",
    "TIENDA":"SUCURSAL",
    "LATITUD":18.944789,
    "LONGITUD":-99.229899
  },
  {
    "IDUNIDAD":"1475",
    "NOMBREL":"ERMITA 4",
    "MUNICIPIOL":"IZTAPALAPA",
    "ESTADO":"DISTRITO FEDERAL",
    "TIENDA":"SUCURSAL",
    "LATITUD":19.358419,
    "LONGITUD":-99.12813
  },
  {
    "IDUNIDAD":"1476",
    "NOMBREL":"PACHUCA 6",
    "MUNICIPIOL":"PACHUCA DE SOTO",
    "ESTADO":"HIDALGO",
    "TIENDA":"SUCURSAL",
    "LATITUD":20.113348,
    "LONGITUD":-98.715425
  },
  {
    "IDUNIDAD":"1477",
    "NOMBREL":"PUEBLA 22",
    "MUNICIPIOL":"PUEBLA",
    "ESTADO":"PUEBLA",
    "TIENDA":"SUCURSAL",
    "LATITUD":19.046068,
    "LONGITUD":-98.249253
  },
  {
    "IDUNIDAD":"1478",
    "NOMBREL":"NUEVO LAREDO 13",
    "MUNICIPIOL":"NUEVO LAREDO",
    "ESTADO":"TAMAULIPAS",
    "TIENDA":"SUCURSAL",
    "LATITUD":27.51691,
    "LONGITUD":-99.56352
  },
  {
    "IDUNIDAD":"148",
    "NOMBREL":"METRO CANDELARIA",
    "MUNICIPIOL":"VENUSTIANO CARRANZA",
    "ESTADO":"DISTRITO FEDERAL",
    "TIENDA":"SUCURSAL",
    "LATITUD":19.42808,
    "LONGITUD":-99.11993
  },
  {
    "IDUNIDAD":"1480",
    "NOMBREL":"VILLA DE CORZO 1",
    "MUNICIPIOL":"VILLA CORZO",
    "ESTADO":"CHIAPAS",
    "TIENDA":"SUCURSAL",
    "LATITUD":16.132125,
    "LONGITUD":-93.165546
  },
  {
    "IDUNIDAD":"1481",
    "NOMBREL":"CD. JUAREZ 20",
    "MUNICIPIOL":"JUAREZ",
    "ESTADO":"CHIHUAHUA",
    "TIENDA":"SUCURSAL",
    "LATITUD":31.65932,
    "LONGITUD":-106.38895
  },
  {
    "IDUNIDAD":"1483",
    "NOMBREL":"DURANGO 14",
    "MUNICIPIOL":"DURANGO",
    "ESTADO":"DURANGO",
    "TIENDA":"SUCURSAL",
    "LATITUD":24.008906,
    "LONGITUD":-104.638456
  },
  {
    "IDUNIDAD":"1484",
    "NOMBREL":"ACAPULCO 27",
    "MUNICIPIOL":"ACAPULCO DE JUAREZ",
    "ESTADO":"GUERRERO",
    "TIENDA":"SUCURSAL",
    "LATITUD":16.894774,
    "LONGITUD":-99.832617
  },
  {
    "IDUNIDAD":"1485",
    "NOMBREL":"CULIACAN 23",
    "MUNICIPIOL":"CULIACAN",
    "ESTADO":"SINALOA",
    "TIENDA":"SUCURSAL",
    "LATITUD":24.833307,
    "LONGITUD":-107.396577
  },
  {
    "IDUNIDAD":"1486",
    "NOMBREL":"PINOTEPA NACIONAL 2",
    "MUNICIPIOL":"SANTIAGO PINOTEPA NACIONAL",
    "ESTADO":"OAXACA",
    "TIENDA":"SUCURSAL",
    "LATITUD":16.341141,
    "LONGITUD":-98.053534
  },
  {
    "IDUNIDAD":"1487",
    "NOMBREL":"TIJUANA 36",
    "MUNICIPIOL":"TIJUANA",
    "ESTADO":"BAJA CALIFORNIA",
    "TIENDA":"SUCURSAL",
    "LATITUD":32.463503,
    "LONGITUD":-116.92401
  },
  {
    "IDUNIDAD":"1488",
    "NOMBREL":"TAXCO 4",
    "MUNICIPIOL":"TAXCO DE ALARCON",
    "ESTADO":"GUERRERO",
    "TIENDA":"SUCURSAL",
    "LATITUD":18.55443,
    "LONGITUD":-99.60232
  },
  {
    "IDUNIDAD":"1489",
    "NOMBREL":"URSULO GALVAN",
    "MUNICIPIOL":"URSULO GALVAN",
    "ESTADO":"VERACRUZ",
    "TIENDA":"SUCURSAL",
    "LATITUD":19.404521,
    "LONGITUD":-96.357546
  },
  {
    "IDUNIDAD":"149",
    "NOMBREL":"NEZAHUALCOYOTL 5",
    "MUNICIPIOL":"NEZAHUALCOYOTL",
    "ESTADO":"ESTADO DE MEXICO",
    "TIENDA":"SUCURSAL",
    "LATITUD":19.391629,
    "LONGITUD":-99.037763
  },
  {
    "IDUNIDAD":"1490",
    "NOMBREL":"ACAPULCO 28",
    "MUNICIPIOL":"ACAPULCO DE JUAREZ",
    "ESTADO":"GUERRERO",
    "TIENDA":"SUCURSAL",
    "LATITUD":16.869672,
    "LONGITUD":-99.896965
  },
  {
    "IDUNIDAD":"1491",
    "NOMBREL":"ACAPULCO 29",
    "MUNICIPIOL":"ACAPULCO DE JUAREZ",
    "ESTADO":"GUERRERO",
    "TIENDA":"SUCURSAL",
    "LATITUD":16.85402,
    "LONGITUD":-99.900452
  },
  {
    "IDUNIDAD":"1492",
    "NOMBREL":"PACHUCA 8",
    "MUNICIPIOL":"PACHUCA DE SOTO",
    "ESTADO":"HIDALGO",
    "TIENDA":"SUCURSAL",
    "LATITUD":20.124938,
    "LONGITUD":-98.754956
  },
  {
    "IDUNIDAD":"1493",
    "NOMBREL":"MONTERREY 63",
    "MUNICIPIOL":"GUADALUPE",
    "ESTADO":"NUEVO LEON",
    "TIENDA":"SUCURSAL",
    "LATITUD":25.64165,
    "LONGITUD":-100.19498
  },
  {
    "IDUNIDAD":"1494",
    "NOMBREL":"COZUMEL 8",
    "MUNICIPIOL":"COZUMEL",
    "ESTADO":"QUINTANA ROO",
    "TIENDA":"SUCURSAL",
    "LATITUD":20.496454,
    "LONGITUD":-86.932046
  },
  {
    "IDUNIDAD":"1496",
    "NOMBREL":"COZUMEL 9",
    "MUNICIPIOL":"COZUMEL",
    "ESTADO":"QUINTANA ROO",
    "TIENDA":"SUCURSAL",
    "LATITUD":20.491679,
    "LONGITUD":-86.949509
  },
  {
    "IDUNIDAD":"1498",
    "NOMBREL":"PACHUCA 9",
    "MUNICIPIOL":"PACHUCA DE SOTO",
    "ESTADO":"HIDALGO",
    "TIENDA":"SUCURSAL",
    "LATITUD":20.110894,
    "LONGITUD":-98.726665
  },
  {
    "IDUNIDAD":"1499",
    "NOMBREL":"CHALCO 6",
    "MUNICIPIOL":"CHALCO",
    "ESTADO":"ESTADO DE MEXICO",
    "TIENDA":"SUCURSAL",
    "LATITUD":19.260331,
    "LONGITUD":-98.900894
  },
  {
    "IDUNIDAD":"15",
    "NOMBREL":"NAUCALPAN 1",
    "MUNICIPIOL":"NAUCALPAN DE JUAREZ",
    "ESTADO":"ESTADO DE MEXICO",
    "TIENDA":"SUCURSAL",
    "LATITUD":19.47391,
    "LONGITUD":-99.23554
  },
  {
    "IDUNIDAD":"150",
    "NOMBREL":"CASAS ALEMAN 1",
    "MUNICIPIOL":"GUSTAVO A MADERO",
    "ESTADO":"DISTRITO FEDERAL",
    "TIENDA":"SUCURSAL",
    "LATITUD":19.476099,
    "LONGITUD":-99.081566
  },
  {
    "IDUNIDAD":"1500",
    "NOMBREL":"CD. JUAREZ 21",
    "MUNICIPIOL":"JUAREZ",
    "ESTADO":"CHIHUAHUA",
    "TIENDA":"SUCURSAL",
    "LATITUD":31.69327,
    "LONGITUD":-106.37176
  },
  {
    "IDUNIDAD":"1501",
    "NOMBREL":"NEZAHUALCOYOTL 20",
    "MUNICIPIOL":"NEZAHUALCOYOTL",
    "ESTADO":"ESTADO DE MEXICO",
    "TIENDA":"SUCURSAL",
    "LATITUD":19.486236,
    "LONGITUD":-99.049669
  },
  {
    "IDUNIDAD":"1502",
    "NOMBREL":"SAN LUIS POTOSI 34",
    "MUNICIPIOL":"SAN LUIS POTOSI",
    "ESTADO":"SAN LUIS POTOSI",
    "TIENDA":"SUCURSAL",
    "LATITUD":22.166739,
    "LONGITUD":-100.986805
  },
  {
    "IDUNIDAD":"1503",
    "NOMBREL":"MERIDA 16",
    "MUNICIPIOL":"MERIDA",
    "ESTADO":"YUCATAN",
    "TIENDA":"SUCURSAL",
    "LATITUD":20.969241,
    "LONGITUD":-89.59131
  },
  {
    "IDUNIDAD":"1505",
    "NOMBREL":"CAMPECHE 9",
    "MUNICIPIOL":"CAMPECHE",
    "ESTADO":"CAMPECHE",
    "TIENDA":"SUCURSAL",
    "LATITUD":19.823003,
    "LONGITUD":-90.532666
  },
  {
    "IDUNIDAD":"1506",
    "NOMBREL":"MONTERREY 64",
    "MUNICIPIOL":"SAN NICOLAS DE LOS GARZA",
    "ESTADO":"NUEVO LEON",
    "TIENDA":"SUCURSAL",
    "LATITUD":25.719023,
    "LONGITUD":-100.265618
  },
  {
    "IDUNIDAD":"1507",
    "NOMBREL":"BAHIA DE BANDERAS 1",
    "MUNICIPIOL":"BAHIA DE BANDERAS",
    "ESTADO":"NAYARIT",
    "TIENDA":"SUCURSAL",
    "LATITUD":20.75211,
    "LONGITUD":-105.32661
  },
  {
    "IDUNIDAD":"1508",
    "NOMBREL":"ACAPULCO 30",
    "MUNICIPIOL":"ACAPULCO DE JUAREZ",
    "ESTADO":"GUERRERO",
    "TIENDA":"SUCURSAL",
    "LATITUD":16.849008,
    "LONGITUD":-99.908251
  },
  {
    "IDUNIDAD":"1509",
    "NOMBREL":"APAN 2",
    "MUNICIPIOL":"APAN",
    "ESTADO":"HIDALGO",
    "TIENDA":"SUCURSAL",
    "LATITUD":19.710308,
    "LONGITUD":-98.452596
  },
  {
    "IDUNIDAD":"151",
    "NOMBREL":"GUADALAJARA 16",
    "MUNICIPIOL":"GUADALAJARA",
    "ESTADO":"JALISCO",
    "TIENDA":"SUCURSAL",
    "LATITUD":20.671746,
    "LONGITUD":-103.343516
  },
  {
    "IDUNIDAD":"1510",
    "NOMBREL":"CAMPECHE 10",
    "MUNICIPIOL":"CAMPECHE",
    "ESTADO":"CAMPECHE",
    "TIENDA":"SUCURSAL",
    "LATITUD":19.806028,
    "LONGITUD":-90.601495
  },
  {
    "IDUNIDAD":"1511",
    "NOMBREL":"SAN LUIS RIO COLORADO 5",
    "MUNICIPIOL":"SAN LUIS RIO COLORADO",
    "ESTADO":"SONORA",
    "TIENDA":"SUCURSAL",
    "LATITUD":32.478611,
    "LONGITUD":-114.783056
  },
  {
    "IDUNIDAD":"1512",
    "NOMBREL":"CANAL DEL NORTE 1",
    "MUNICIPIOL":"VENUSTIANO CARRANZA",
    "ESTADO":"DISTRITO FEDERAL",
    "TIENDA":"SUCURSAL",
    "LATITUD":19.450312,
    "LONGITUD":-99.115954
  },
  {
    "IDUNIDAD":"1513",
    "NOMBREL":"CD. JUAREZ 22",
    "MUNICIPIOL":"JUAREZ",
    "ESTADO":"CHIHUAHUA",
    "TIENDA":"SUCURSAL",
    "LATITUD":31.69349,
    "LONGITUD":-106.42564
  },